[
  {
    "_id":1759,
    "gov_name":"HYDER VALLEY IRRIGATION WATER DELIVERY DISTRICT 35",
    "alt_name":"Hyder Valley Irrigation Water Delivery District 35",
    "alt_type":"Special District",
    "latitude":33.71,
    "longitude":-116.33,
    "state":"CA"
  },
  {
    "_id":3682,
    "gov_name":"COUNTY OF ALAMEDA",
    "alt_name":"Alameda County",
    "alt_type":"County",
    "latitude":37.8,
    "longitude":-122.26,
    "state":"CA"
  },
  {
    "_id":3683,
    "gov_name":"ALAMEDA COUNTY OFFICE OF EDUCATION",
    "alt_name":"Alameda County Office of Education",
    "alt_type":"School District",
    "latitude":37.63,
    "longitude":-122.06,
    "state":"CA"
  },
  {
    "_id":3684,
    "gov_name":"COUNTY OF ALPINE",
    "alt_name":"Alpine County",
    "alt_type":"County",
    "latitude":38.77,
    "longitude":-119.83,
    "state":"CA"
  },
  {
    "_id":3685,
    "gov_name":"ALPINE COUNTY SPECIAL SCHOOLS",
    "alt_name":"Alpine County Office of Education",
    "alt_type":"School District",
    "latitude":38.77,
    "longitude":-119.83,
    "state":"CA"
  },
  {
    "_id":3686,
    "gov_name":"COUNTY OF AMADOR",
    "alt_name":"Amador County",
    "alt_type":"County",
    "latitude":38.35,
    "longitude":-120.75,
    "state":"CA"
  },
  {
    "_id":3687,
    "gov_name":"AMADOR COUNTY SPECIAL SCHOOLS",
    "alt_name":"Amador County Office of Education",
    "alt_type":"School District",
    "latitude":38.35,
    "longitude":-120.75,
    "state":"CA"
  },
  {
    "_id":3688,
    "gov_name":"COUNTY OF BUTTE",
    "alt_name":"Butte County",
    "alt_type":"County",
    "latitude":39.48,
    "longitude":-121.46,
    "state":"CA"
  },
  {
    "_id":3689,
    "gov_name":"BUTTE COUNTY SPECIAL SCHOOLS",
    "alt_name":"Butte County Office of Education",
    "alt_type":"School District",
    "latitude":39.6,
    "longitude":-121.57,
    "state":"CA"
  },
  {
    "_id":3690,
    "gov_name":"COUNTY OF CALAVERAS",
    "alt_name":"Calaveras County",
    "alt_type":"County",
    "latitude":38.19,
    "longitude":-120.64,
    "state":"CA"
  },
  {
    "_id":3691,
    "gov_name":"CALAVERAS COUNTY SPECIAL SCHOOLS",
    "alt_name":"Calaveras County Office of Education",
    "alt_type":"School District",
    "latitude":38.08,
    "longitude":-120.56,
    "state":"CA"
  },
  {
    "_id":3692,
    "gov_name":"COUNTY OF COLUSA",
    "alt_name":"Colusa County",
    "alt_type":"County",
    "latitude":39.23,
    "longitude":-122.02,
    "state":"CA"
  },
  {
    "_id":3693,
    "gov_name":"COLUSA COUNTY OFFICE OF EDUCATION",
    "alt_name":"Colusa County Office of Education",
    "alt_type":"School District",
    "latitude":39.23,
    "longitude":-122.02,
    "state":"CA"
  },
  {
    "_id":3694,
    "gov_name":"COUNTY OF CONTRA COSTA",
    "alt_name":"Contra Costa County",
    "alt_type":"County",
    "latitude":37.98,
    "longitude":-122.13,
    "state":"CA"
  },
  {
    "_id":3695,
    "gov_name":"CONTRA COSTA COUNTY SPECIAL SCHOOLS",
    "alt_name":"Contra Costa County Office of Education",
    "alt_type":"School District",
    "latitude":37.95,
    "longitude":-122.07,
    "state":"CA"
  },
  {
    "_id":3696,
    "gov_name":"COUNTY OF DEL NORTE",
    "alt_name":"Del Norte County",
    "alt_type":"County",
    "latitude":41.78,
    "longitude":-124.13,
    "state":"CA"
  },
  {
    "_id":3697,
    "gov_name":"DEL NORTE COUNTY SPECIAL SCHOOLS",
    "alt_name":"Del Norte County Office of Education",
    "alt_type":"School District",
    "latitude":41.78,
    "longitude":-124.13,
    "state":"CA"
  },
  {
    "_id":3698,
    "gov_name":"COUNTY OF EL DORADO",
    "alt_name":"El Dorado County",
    "alt_type":"County",
    "latitude":38.71,
    "longitude":-120.8,
    "state":"CA"
  },
  {
    "_id":3699,
    "gov_name":"EL DORADO COUNTY SPECIAL SCHOOLS",
    "alt_name":"El Dorado County Office of Education",
    "alt_type":"School District",
    "latitude":38.71,
    "longitude":-120.8,
    "state":"CA"
  },
  {
    "_id":3700,
    "gov_name":"COUNTY OF FRESNO",
    "alt_name":"Fresno County",
    "alt_type":"County",
    "latitude":36.73,
    "longitude":-119.78,
    "state":"CA"
  },
  {
    "_id":3701,
    "gov_name":"FRESNO COUNTY OFFICE OF EDUCATION SPECIAL SCHOOLS",
    "alt_name":"Fresno County Office of Education",
    "alt_type":"School District",
    "latitude":36.73,
    "longitude":-119.78,
    "state":"CA"
  },
  {
    "_id":3702,
    "gov_name":"COUNTY OF GLENN",
    "alt_name":"Glenn County",
    "alt_type":"County",
    "latitude":39.53,
    "longitude":-122.25,
    "state":"CA"
  },
  {
    "_id":3703,
    "gov_name":"GLENN COUNTY SPECIAL SCHOOLS",
    "alt_name":"Glenn County Office of Education",
    "alt_type":"School District",
    "latitude":39.53,
    "longitude":-122.25,
    "state":"CA"
  },
  {
    "_id":3704,
    "gov_name":"COUNTY OF HUMBOLDT",
    "alt_name":"Humboldt County",
    "alt_type":"County",
    "latitude":40.79,
    "longitude":-124.15,
    "state":"CA"
  },
  {
    "_id":3705,
    "gov_name":"HUMBOLDT COUNTY SPECIAL SCHOOLS",
    "alt_name":"Humboldt County Office of Education",
    "alt_type":"School District",
    "latitude":40.79,
    "longitude":-124.15,
    "state":"CA"
  },
  {
    "_id":3706,
    "gov_name":"COUNTY OF IMPERIAL",
    "alt_name":"Imperial County",
    "alt_type":"County",
    "latitude":32.78,
    "longitude":-115.56,
    "state":"CA"
  },
  {
    "_id":3707,
    "gov_name":"IMPERIAL COUNTY SPECIAL SCHOOLS",
    "alt_name":"Imperial County Office of Education",
    "alt_type":"School District",
    "latitude":32.78,
    "longitude":-115.56,
    "state":"CA"
  },
  {
    "_id":3708,
    "gov_name":"COUNTY OF INYO",
    "alt_name":"Inyo County",
    "alt_type":"County",
    "latitude":36.83,
    "longitude":-118.2,
    "state":"CA"
  },
  {
    "_id":3709,
    "gov_name":"INYO COUNTY SPECIAL SCHOOLS",
    "alt_name":"Inyo County Office of Education",
    "alt_type":"School District",
    "latitude":36.83,
    "longitude":-118.2,
    "state":"CA"
  },
  {
    "_id":3710,
    "gov_name":"COUNTY OF KERN",
    "alt_name":"Kern County",
    "alt_type":"County",
    "latitude":35.38,
    "longitude":-119.01,
    "state":"CA"
  },
  {
    "_id":3711,
    "gov_name":"KERN COUNTY SPECIAL SCHOOLS",
    "alt_name":"Kern County Office of Education",
    "alt_type":"School District",
    "latitude":35.38,
    "longitude":-119.01,
    "state":"CA"
  },
  {
    "_id":3712,
    "gov_name":"COUNTY OF KINGS",
    "alt_name":"Kings County",
    "alt_type":"County",
    "latitude":36.33,
    "longitude":-119.64,
    "state":"CA"
  },
  {
    "_id":3713,
    "gov_name":"KINGS COUNTY SPECIAL SCHOOLS",
    "alt_name":"Kings County Office of Education",
    "alt_type":"School District",
    "latitude":36.33,
    "longitude":-119.64,
    "state":"CA"
  },
  {
    "_id":3714,
    "gov_name":"COUNTY OF LAKE",
    "alt_name":"Lake County",
    "alt_type":"County",
    "latitude":39.04,
    "longitude":-122.93,
    "state":"CA"
  },
  {
    "_id":3715,
    "gov_name":"LAKE COUNTY SPECIAL SCHOOLS",
    "alt_name":"Lake County Office of Education",
    "alt_type":"School District",
    "latitude":39.04,
    "longitude":-122.93,
    "state":"CA"
  },
  {
    "_id":3716,
    "gov_name":"COUNTY OF LASSEN",
    "alt_name":"Lassen County",
    "alt_type":"County",
    "latitude":40.39,
    "longitude":-120.64,
    "state":"CA"
  },
  {
    "_id":3717,
    "gov_name":"LASSEN COUNTY SPECIAL SCHOOLS",
    "alt_name":"Lassen County Office of Education",
    "alt_type":"School District",
    "latitude":40.39,
    "longitude":-120.64,
    "state":"CA"
  },
  {
    "_id":3718,
    "gov_name":"COUNTY OF LOS ANGELES",
    "alt_name":"Los Angeles County",
    "alt_type":"County",
    "latitude":34.06,
    "longitude":-118.23,
    "state":"CA"
  },
  {
    "_id":3719,
    "gov_name":"LOS ANGELES COUNTY OFFICE OF EDUCATION",
    "alt_name":"Los Angeles County Office of Education",
    "alt_type":"School District",
    "latitude":33.92,
    "longitude":-118.13,
    "state":"CA"
  },
  {
    "_id":3720,
    "gov_name":"COUNTY OF MADERA",
    "alt_name":"Madera County",
    "alt_type":"County",
    "latitude":36.94,
    "longitude":-120.08,
    "state":"CA"
  },
  {
    "_id":3721,
    "gov_name":"MADERA COUNTY SPECIAL SCHOOLS",
    "alt_name":"Madera County Office of Education",
    "alt_type":"School District",
    "latitude":37.04,
    "longitude":-120.03,
    "state":"CA"
  },
  {
    "_id":3722,
    "gov_name":"COUNTY OF MARIN",
    "alt_name":"Marin County",
    "alt_type":"County",
    "latitude":38.03,
    "longitude":-122.58,
    "state":"CA"
  },
  {
    "_id":3723,
    "gov_name":"MARIN COUNTY SPECIAL SCHOOLS",
    "alt_name":"Marin County Office of Education",
    "alt_type":"School District",
    "latitude":38.06,
    "longitude":-122.74,
    "state":"CA"
  },
  {
    "_id":3724,
    "gov_name":"COUNTY OF MARIPOSA",
    "alt_name":"Mariposa County",
    "alt_type":"County",
    "latitude":37.49,
    "longitude":-119.92,
    "state":"CA"
  },
  {
    "_id":3725,
    "gov_name":"MARIPOSA COUNTY SPECIAL SCHOOLS",
    "alt_name":"Mariposa County Office of Education",
    "alt_type":"School District",
    "latitude":37.49,
    "longitude":-119.92,
    "state":"CA"
  },
  {
    "_id":3726,
    "gov_name":"COUNTY OF MENDOCINO",
    "alt_name":"Mendocino County",
    "alt_type":"County",
    "latitude":39.15,
    "longitude":-123.19,
    "state":"CA"
  },
  {
    "_id":3727,
    "gov_name":"MENDOCINO COUNTY SPECIAL SCHOOLS",
    "alt_name":"Mendocino County Office of Education",
    "alt_type":"School District",
    "latitude":39.15,
    "longitude":-123.19,
    "state":"CA"
  },
  {
    "_id":3728,
    "gov_name":"COUNTY OF MERCED",
    "alt_name":"Merced County",
    "alt_type":"County",
    "latitude":37.33,
    "longitude":-120.5,
    "state":"CA"
  },
  {
    "_id":3729,
    "gov_name":"MERCED COUNTY SPECIAL SCHOOLS",
    "alt_name":"Merced County Office of Education",
    "alt_type":"School District",
    "latitude":37.29,
    "longitude":-120.46,
    "state":"CA"
  },
  {
    "_id":3730,
    "gov_name":"COUNTY OF MODOC",
    "alt_name":"Modoc County",
    "alt_type":"County",
    "latitude":41.47,
    "longitude":-120.54,
    "state":"CA"
  },
  {
    "_id":3731,
    "gov_name":"MODOC COUNTY SPECIAL SCHOOLS",
    "alt_name":"Modoc County Office of Education",
    "alt_type":"School District",
    "latitude":41.47,
    "longitude":-120.54,
    "state":"CA"
  },
  {
    "_id":3732,
    "gov_name":"COUNTY OF MONO",
    "alt_name":"Mono County",
    "alt_type":"County",
    "latitude":37.6,
    "longitude":-118.86,
    "state":"CA"
  },
  {
    "_id":3733,
    "gov_name":"MONO COUNTY SPECIAL SCHOOLS",
    "alt_name":"Mono County Office of Education",
    "alt_type":"School District",
    "latitude":38.25,
    "longitude":-119.2,
    "state":"CA"
  },
  {
    "_id":3734,
    "gov_name":"COUNTY OF MONTEREY",
    "alt_name":"Monterey County",
    "alt_type":"County",
    "latitude":36.66,
    "longitude":-121.65,
    "state":"CA"
  },
  {
    "_id":3735,
    "gov_name":"MONTEREY COUNTY SPECIAL SCHOOLS",
    "alt_name":"Monterey County Office of Education",
    "alt_type":"School District",
    "latitude":36.35,
    "longitude":-121.13,
    "state":"CA"
  },
  {
    "_id":3736,
    "gov_name":"COUNTY OF NAPA",
    "alt_name":"Napa County",
    "alt_type":"County",
    "latitude":38.29,
    "longitude":-122.28,
    "state":"CA"
  },
  {
    "_id":3737,
    "gov_name":"NAPA COUNTY SPECIAL SCHOOLS",
    "alt_name":"Napa County Office of Education",
    "alt_type":"School District",
    "latitude":38.29,
    "longitude":-122.28,
    "state":"CA"
  },
  {
    "_id":3738,
    "gov_name":"COUNTY OF NEVADA",
    "alt_name":"Nevada County",
    "alt_type":"County",
    "latitude":39.3,
    "longitude":-120.97,
    "state":"CA"
  },
  {
    "_id":3739,
    "gov_name":"NEVADA COUNTY SPECIAL SCHOOLS",
    "alt_name":"Nevada County Office of Education",
    "alt_type":"School District",
    "latitude":39.3,
    "longitude":-120.97,
    "state":"CA"
  },
  {
    "_id":3740,
    "gov_name":"COUNTY OF ORANGE",
    "alt_name":"Orange County",
    "alt_type":"County",
    "latitude":33.75,
    "longitude":-117.85,
    "state":"CA"
  },
  {
    "_id":3741,
    "gov_name":"ORANGE COUNTY DEPARTMENT OF EDUCATION",
    "alt_name":"Orange County Department of Education",
    "alt_type":"School District",
    "latitude":33.64,
    "longitude":-117.91,
    "state":"CA"
  },
  {
    "_id":3742,
    "gov_name":"COUNTY OF PLACER",
    "alt_name":"Placer County",
    "alt_type":"County",
    "latitude":38.91,
    "longitude":-121.08,
    "state":"CA"
  },
  {
    "_id":3743,
    "gov_name":"PLACER COUNTY SPECIAL SCHOOLS",
    "alt_name":"Placer County Office of Education",
    "alt_type":"School District",
    "latitude":38.91,
    "longitude":-121.08,
    "state":"CA"
  },
  {
    "_id":3744,
    "gov_name":"COUNTY OF PLUMAS",
    "alt_name":"Plumas County",
    "alt_type":"County",
    "latitude":39.92,
    "longitude":-120.96,
    "state":"CA"
  },
  {
    "_id":3745,
    "gov_name":"PLUMAS COUNTY SPECIAL SCHOOLS",
    "alt_name":"Plumas County Office of Education",
    "alt_type":"School District",
    "latitude":39.92,
    "longitude":-120.96,
    "state":"CA"
  },
  {
    "_id":3746,
    "gov_name":"COUNTY OF RIVERSIDE",
    "alt_name":"Riverside County",
    "alt_type":"County",
    "latitude":33.99,
    "longitude":-117.36,
    "state":"CA"
  },
  {
    "_id":3747,
    "gov_name":"RIVERSIDE COUNTY SPECIAL SCHOOLS",
    "alt_name":"Riverside County Office of Education",
    "alt_type":"School District",
    "latitude":33.75,
    "longitude":-116.05,
    "state":"CA"
  },
  {
    "_id":3748,
    "gov_name":"COUNTY OF SACRAMENTO",
    "alt_name":"Sacramento County",
    "alt_type":"County",
    "latitude":38.58,
    "longitude":-121.49,
    "state":"CA"
  },
  {
    "_id":3749,
    "gov_name":"SACRAMENTO COUNTY SPECIAL SCHOOLS",
    "alt_name":"Sacramento County Office of Education",
    "alt_type":"School District",
    "latitude":38.55,
    "longitude":-121.36,
    "state":"CA"
  },
  {
    "_id":3750,
    "gov_name":"COUNTY OF SAN BENITO",
    "alt_name":"San Benito County",
    "alt_type":"County",
    "latitude":36.83,
    "longitude":-121.34,
    "state":"CA"
  },
  {
    "_id":3751,
    "gov_name":"SAN BENITO COUNTY SPECIAL SCHOOLS",
    "alt_name":"San Benito County Office of Education",
    "alt_type":"School District",
    "latitude":36.83,
    "longitude":-121.34,
    "state":"CA"
  },
  {
    "_id":3752,
    "gov_name":"COUNTY OF SAN BERNARDINO",
    "alt_name":"San Bernardino County",
    "alt_type":"County",
    "latitude":34.84,
    "longitude":-115.96,
    "state":"CA"
  },
  {
    "_id":3753,
    "gov_name":"SAN BERNARDINO COUNTY SPECIAL SCHOOLS",
    "alt_name":"San Bernardino County Office of Education",
    "alt_type":"School District",
    "latitude":34.1,
    "longitude":-117.29,
    "state":"CA"
  },
  {
    "_id":3754,
    "gov_name":"COUNTY OF SAN DIEGO",
    "alt_name":"San Diego County",
    "alt_type":"County",
    "latitude":32.79,
    "longitude":-117.13,
    "state":"CA"
  },
  {
    "_id":3755,
    "gov_name":"SAN DIEGO COUNTY SPECIAL SCHOOLS",
    "alt_name":"San Diego County Office of Education",
    "alt_type":"School District",
    "latitude":32.79,
    "longitude":-117.17,
    "state":"CA"
  },
  {
    "_id":3756,
    "gov_name":"COUNTY OF SAN JOAQUIN",
    "alt_name":"San Joaquin County",
    "alt_type":"County",
    "latitude":37.96,
    "longitude":-121.28,
    "state":"CA"
  },
  {
    "_id":3757,
    "gov_name":"SAN JOAQUIN COUNTY SPECIAL SCHOOLS",
    "alt_name":"San Joaquin County Office of Education",
    "alt_type":"School District",
    "latitude":37.9,
    "longitude":-121.22,
    "state":"CA"
  },
  {
    "_id":3758,
    "gov_name":"COUNTY OF SAN LUIS OBISPO",
    "alt_name":"San Luis Obispo County",
    "alt_type":"County",
    "latitude":35.34,
    "longitude":-120.45,
    "state":"CA"
  },
  {
    "_id":3759,
    "gov_name":"SAN LUIS OBISPO COUNTY SPECIAL SCHOOLS",
    "alt_name":"San Luis Obispo County Office of Education",
    "alt_type":"School District",
    "latitude":35.29,
    "longitude":-120.68,
    "state":"CA"
  },
  {
    "_id":3760,
    "gov_name":"COUNTY OF SAN MATEO",
    "alt_name":"San Mateo County",
    "alt_type":"County",
    "latitude":37.48,
    "longitude":-122.2,
    "state":"CA"
  },
  {
    "_id":3761,
    "gov_name":"SAN MATEO COUNTY SPECIAL SCHOOLS",
    "alt_name":"San Mateo County Office of Education",
    "alt_type":"School District",
    "latitude":37.53,
    "longitude":-122.24,
    "state":"CA"
  },
  {
    "_id":3762,
    "gov_name":"COUNTY OF SANTA BARBARA",
    "alt_name":"Santa Barbara County",
    "alt_type":"County",
    "latitude":34.82,
    "longitude":-120.42,
    "state":"CA"
  },
  {
    "_id":3763,
    "gov_name":"SANTA BARBARA COUNTY SPECIAL SCHOOLS",
    "alt_name":"Santa Barbara County Office of Education",
    "alt_type":"School District",
    "latitude":34.26,
    "longitude":-119.84,
    "state":"CA"
  },
  {
    "_id":3764,
    "gov_name":"COUNTY OF SANTA CLARA",
    "alt_name":"Santa Clara County",
    "alt_type":"County",
    "latitude":37.33,
    "longitude":-121.9,
    "state":"CA"
  },
  {
    "_id":3765,
    "gov_name":"SANTA CLARA COUNTY SPECIAL SCHOOLS",
    "alt_name":"Santa Clara County Office of Education",
    "alt_type":"School District",
    "latitude":37.38,
    "longitude":-121.88,
    "state":"CA"
  },
  {
    "_id":3766,
    "gov_name":"COUNTY OF SANTA CRUZ",
    "alt_name":"Santa Cruz County",
    "alt_type":"County",
    "latitude":37.03,
    "longitude":-122.11,
    "state":"CA"
  },
  {
    "_id":3767,
    "gov_name":"SANTA CRUZ COUNTY SPECIAL SCHOOLS",
    "alt_name":"Santa Cruz County Office of Education",
    "alt_type":"School District",
    "latitude":36.97,
    "longitude":-121.95,
    "state":"CA"
  },
  {
    "_id":3768,
    "gov_name":"COUNTY OF SHASTA",
    "alt_name":"Shasta County",
    "alt_type":"County",
    "latitude":40.56,
    "longitude":-122.41,
    "state":"CA"
  },
  {
    "_id":3769,
    "gov_name":"SHASTA COUNTY SPECIAL SCHOOLS",
    "alt_name":"Shasta County Office of Education",
    "alt_type":"School District",
    "latitude":40.56,
    "longitude":-122.41,
    "state":"CA"
  },
  {
    "_id":3770,
    "gov_name":"COUNTY OF SIERRA",
    "alt_name":"Sierra County",
    "alt_type":"County",
    "latitude":39.56,
    "longitude":-120.83,
    "state":"CA"
  },
  {
    "_id":3771,
    "gov_name":"SIERRA COUNTY SPECIAL SCHOOLS",
    "alt_name":"Sierra County Office of Education",
    "alt_type":"School District",
    "latitude":39.58,
    "longitude":-120.37,
    "state":"CA"
  },
  {
    "_id":3772,
    "gov_name":"COUNTY OF SISKIYOU",
    "alt_name":"Siskiyou County",
    "alt_type":"County",
    "latitude":41.72,
    "longitude":-122.63,
    "state":"CA"
  },
  {
    "_id":3773,
    "gov_name":"SISKIYOU COUNTY SPECIAL SCHOOLS",
    "alt_name":"Siskiyou County Office of Education",
    "alt_type":"School District",
    "latitude":41.72,
    "longitude":-122.63,
    "state":"CA"
  },
  {
    "_id":3774,
    "gov_name":"COUNTY OF SOLANO",
    "alt_name":"Solano County",
    "alt_type":"County",
    "latitude":38.26,
    "longitude":-122.03,
    "state":"CA"
  },
  {
    "_id":3775,
    "gov_name":"SOLANO COUNTY SPECIAL SCHOOLS",
    "alt_name":"Solano County Office of Education",
    "alt_type":"School District",
    "latitude":38.24,
    "longitude":-122.13,
    "state":"CA"
  },
  {
    "_id":3776,
    "gov_name":"COUNTY OF SONOMA",
    "alt_name":"Sonoma County",
    "alt_type":"County",
    "latitude":38.48,
    "longitude":-122.74,
    "state":"CA"
  },
  {
    "_id":3777,
    "gov_name":"SONOMA COUNTY SPECIAL SCHOOLS",
    "alt_name":"Sonoma County Office of Education",
    "alt_type":"School District",
    "latitude":38.48,
    "longitude":-122.74,
    "state":"CA"
  },
  {
    "_id":3778,
    "gov_name":"COUNTY OF STANISLAUS",
    "alt_name":"Stanislaus County",
    "alt_type":"County",
    "latitude":37.64,
    "longitude":-120.97,
    "state":"CA"
  },
  {
    "_id":3779,
    "gov_name":"STANISLAUS COUNTY SPECIAL SCHOOLS",
    "alt_name":"Stanislaus County Office of Education",
    "alt_type":"School District",
    "latitude":37.64,
    "longitude":-120.97,
    "state":"CA"
  },
  {
    "_id":3780,
    "gov_name":"COUNTY OF SUTTER",
    "alt_name":"Sutter County",
    "alt_type":"County",
    "latitude":39.12,
    "longitude":-121.66,
    "state":"CA"
  },
  {
    "_id":3781,
    "gov_name":"SUTTER COUNTY SPECIAL SCHOOLS",
    "alt_name":"Sutter County Office of Education",
    "alt_type":"School District",
    "latitude":39.12,
    "longitude":-121.66,
    "state":"CA"
  },
  {
    "_id":3782,
    "gov_name":"COUNTY OF TEHAMA",
    "alt_name":"Tehama County",
    "alt_type":"County",
    "latitude":40.17,
    "longitude":-122.23,
    "state":"CA"
  },
  {
    "_id":3783,
    "gov_name":"TEHAMA COUNTY SPECIAL SCHOOLS",
    "alt_name":"Tehama County Office of Education",
    "alt_type":"School District",
    "latitude":40.17,
    "longitude":-122.23,
    "state":"CA"
  },
  {
    "_id":3784,
    "gov_name":"COUNTY OF TRINITY",
    "alt_name":"Trinity County",
    "alt_type":"County",
    "latitude":40.73,
    "longitude":-122.93,
    "state":"CA"
  },
  {
    "_id":3785,
    "gov_name":"TRINITY COUNTY SPECIAL SCHOOLS",
    "alt_name":"Trinity County Office of Education",
    "alt_type":"School District",
    "latitude":40.73,
    "longitude":-122.93,
    "state":"CA"
  },
  {
    "_id":3786,
    "gov_name":"COUNTY OF TULARE",
    "alt_name":"Tulare County",
    "alt_type":"County",
    "latitude":36.35,
    "longitude":-119.3,
    "state":"CA"
  },
  {
    "_id":3787,
    "gov_name":"TULARE COUNTY SPECIAL SCHOOLS",
    "alt_name":"Tulare County Office of Education",
    "alt_type":"School District",
    "latitude":36.12,
    "longitude":-118.81,
    "state":"CA"
  },
  {
    "_id":3788,
    "gov_name":"COUNTY OF TUOLUMNE",
    "alt_name":"Tuolumne County",
    "alt_type":"County",
    "latitude":37.99,
    "longitude":-120.33,
    "state":"CA"
  },
  {
    "_id":3789,
    "gov_name":"CITY OF DANA POINT",
    "alt_name":"Dana Point",
    "alt_type":"City",
    "latitude":33.47,
    "longitude":-117.69,
    "state":"CA"
  },
  {
    "_id":3790,
    "gov_name":"CITY OF LAGUNA NIGUEL",
    "alt_name":"Laguna Niguel",
    "alt_type":"City",
    "latitude":33.51,
    "longitude":-117.7,
    "state":"CA"
  },
  {
    "_id":3791,
    "gov_name":"CITY OF FOUNTAIN VALLEY",
    "alt_name":"Fountain Valley",
    "alt_type":"City",
    "latitude":33.71,
    "longitude":-117.95,
    "state":"CA"
  },
  {
    "_id":3792,
    "gov_name":"CITY OF CYPRESS",
    "alt_name":"Cypress",
    "alt_type":"City",
    "latitude":33.81,
    "longitude":-118.03,
    "state":"CA"
  },
  {
    "_id":3793,
    "gov_name":"CITY OF LOS ALAMITOS",
    "alt_name":"Los Alamitos",
    "alt_type":"City",
    "latitude":33.79,
    "longitude":-118.06,
    "state":"CA"
  },
  {
    "_id":3794,
    "gov_name":"CITY OF WESTMINSTER",
    "alt_name":"Westminster",
    "alt_type":"City",
    "latitude":33.75,
    "longitude":-117.99,
    "state":"CA"
  },
  {
    "_id":3795,
    "gov_name":"CITY OF SAN JUAN CAPISTRANO",
    "alt_name":"San Juan Capistrano",
    "alt_type":"City",
    "latitude":33.5,
    "longitude":-117.65,
    "state":"CA"
  },
  {
    "_id":3796,
    "gov_name":"CITY OF VILLA PARK",
    "alt_name":"Villa Park",
    "alt_type":"City",
    "latitude":33.82,
    "longitude":-117.81,
    "state":"CA"
  },
  {
    "_id":3797,
    "gov_name":"CITY OF YORBA LINDA",
    "alt_name":"Yorba Linda",
    "alt_type":"City",
    "latitude":33.9,
    "longitude":-117.78,
    "state":"CA"
  },
  {
    "_id":3798,
    "gov_name":"CITY OF IRVINE",
    "alt_name":"Irvine",
    "alt_type":"City",
    "latitude":33.69,
    "longitude":-117.81,
    "state":"CA"
  },
  {
    "_id":3799,
    "gov_name":"CITY OF AUBURN",
    "alt_name":"Auburn",
    "alt_type":"City",
    "latitude":38.91,
    "longitude":-121.08,
    "state":"CA"
  },
  {
    "_id":3800,
    "gov_name":"CITY OF COLFAX",
    "alt_name":"Colfax",
    "alt_type":"City",
    "latitude":39.07,
    "longitude":-120.95,
    "state":"CA"
  },
  {
    "_id":3801,
    "gov_name":"CITY OF LINCOLN",
    "alt_name":"Lincoln",
    "alt_type":"City",
    "latitude":38.89,
    "longitude":-121.29,
    "state":"CA"
  },
  {
    "_id":3802,
    "gov_name":"CITY OF ROCKLIN",
    "alt_name":"Rocklin",
    "alt_type":"City",
    "latitude":38.78,
    "longitude":-121.23,
    "state":"CA"
  },
  {
    "_id":3803,
    "gov_name":"CITY OF ROSEVILLE",
    "alt_name":"Roseville",
    "alt_type":"City",
    "latitude":38.76,
    "longitude":-121.28,
    "state":"CA"
  },
  {
    "_id":3804,
    "gov_name":"TOWN OF LOOMIS",
    "alt_name":"Loomis",
    "alt_type":"City",
    "latitude":38.8,
    "longitude":-121.16,
    "state":"CA"
  },
  {
    "_id":3805,
    "gov_name":"CITY OF PORTOLA",
    "alt_name":"Portola",
    "alt_type":"City",
    "latitude":39.8,
    "longitude":-120.54,
    "state":"CA"
  },
  {
    "_id":3806,
    "gov_name":"CITY OF BANNING",
    "alt_name":"Banning",
    "alt_type":"City",
    "latitude":33.92,
    "longitude":-116.88,
    "state":"CA"
  },
  {
    "_id":3807,
    "gov_name":"CITY OF BEAUMONT",
    "alt_name":"Beaumont",
    "alt_type":"City",
    "latitude":33.95,
    "longitude":-116.97,
    "state":"CA"
  },
  {
    "_id":3808,
    "gov_name":"CITY OF BLYTHE",
    "alt_name":"Blythe",
    "alt_type":"City",
    "latitude":33.74,
    "longitude":-114.66,
    "state":"CA"
  },
  {
    "_id":3809,
    "gov_name":"CITY OF COACHELLA",
    "alt_name":"Coachella",
    "alt_type":"City",
    "latitude":33.67,
    "longitude":-116.17,
    "state":"CA"
  },
  {
    "_id":3810,
    "gov_name":"CITY OF CORONA",
    "alt_name":"Corona",
    "alt_type":"City",
    "latitude":33.84,
    "longitude":-117.6,
    "state":"CA"
  },
  {
    "_id":3811,
    "gov_name":"CITY OF LAKE ELSINORE",
    "alt_name":"Lake Elsinore",
    "alt_type":"City",
    "latitude":33.65,
    "longitude":-117.34,
    "state":"CA"
  },
  {
    "_id":3812,
    "gov_name":"CITY OF HEMET",
    "alt_name":"Hemet",
    "alt_type":"City",
    "latitude":33.74,
    "longitude":-116.97,
    "state":"CA"
  },
  {
    "_id":3813,
    "gov_name":"CITY OF INDIO",
    "alt_name":"Indio",
    "alt_type":"City",
    "latitude":33.72,
    "longitude":-116.03,
    "state":"CA"
  },
  {
    "_id":3814,
    "gov_name":"CITY OF PALM SPRINGS",
    "alt_name":"Palm Springs",
    "alt_type":"City",
    "latitude":33.84,
    "longitude":-116.53,
    "state":"CA"
  },
  {
    "_id":3815,
    "gov_name":"CITY OF PERRIS",
    "alt_name":"Perris",
    "alt_type":"City",
    "latitude":33.78,
    "longitude":-117.31,
    "state":"CA"
  },
  {
    "_id":3816,
    "gov_name":"CITY OF RIVERSIDE",
    "alt_name":"Riverside",
    "alt_type":"City",
    "latitude":33.75,
    "longitude":-116.05,
    "state":"CA"
  },
  {
    "_id":3817,
    "gov_name":"CITY OF SAN JACINTO",
    "alt_name":"San Jacinto",
    "alt_type":"City",
    "latitude":33.75,
    "longitude":-116.05,
    "state":"CA"
  },
  {
    "_id":3818,
    "gov_name":"CITY OF MENIFEE",
    "alt_name":"Menifee",
    "alt_type":"City",
    "latitude":33.7,
    "longitude":-117.19,
    "state":"CA"
  },
  {
    "_id":3819,
    "gov_name":"CITY OF WILDOMAR",
    "alt_name":"Wildomar",
    "alt_type":"City",
    "latitude":33.6,
    "longitude":-117.26,
    "state":"CA"
  },
  {
    "_id":3820,
    "gov_name":"CITY OF EASTVALE",
    "alt_name":"Eastvale",
    "alt_type":"City",
    "latitude":33.99,
    "longitude":-117.52,
    "state":"CA"
  },
  {
    "_id":3821,
    "gov_name":"CITY OF JURUPA VALLEY",
    "alt_name":"Jurupa Valley",
    "alt_type":"City",
    "latitude":34,
    "longitude":-117.44,
    "state":"CA"
  },
  {
    "_id":3822,
    "gov_name":"CITY OF MURRIETA",
    "alt_name":"Murrieta",
    "alt_type":"City",
    "latitude":33.56,
    "longitude":-117.27,
    "state":"CA"
  },
  {
    "_id":3823,
    "gov_name":"CITY OF CALIMESA",
    "alt_name":"Calimesa",
    "alt_type":"City",
    "latitude":33.99,
    "longitude":-117.04,
    "state":"CA"
  },
  {
    "_id":3824,
    "gov_name":"CITY OF CANYON LAKE",
    "alt_name":"Canyon Lake",
    "alt_type":"City",
    "latitude":33.69,
    "longitude":-117.25,
    "state":"CA"
  },
  {
    "_id":3825,
    "gov_name":"CITY OF MORENO VALLEY",
    "alt_name":"Moreno Valley",
    "alt_type":"City",
    "latitude":33.75,
    "longitude":-116.05,
    "state":"CA"
  },
  {
    "_id":3826,
    "gov_name":"CITY OF TEMECULA",
    "alt_name":"Temecula",
    "alt_type":"City",
    "latitude":33.75,
    "longitude":-116.05,
    "state":"CA"
  },
  {
    "_id":3827,
    "gov_name":"CITY OF CATHEDRAL",
    "alt_name":"Cathedral City",
    "alt_type":"City",
    "latitude":33.8,
    "longitude":-116.46,
    "state":"CA"
  },
  {
    "_id":3828,
    "gov_name":"CITY OF LA QUINTA",
    "alt_name":"La Quinta",
    "alt_type":"City",
    "latitude":33.67,
    "longitude":-116.29,
    "state":"CA"
  },
  {
    "_id":3829,
    "gov_name":"CITY OF DESERT HOT SPRINGS",
    "alt_name":"Desert Hot Springs",
    "alt_type":"City",
    "latitude":33.95,
    "longitude":-116.52,
    "state":"CA"
  },
  {
    "_id":3830,
    "gov_name":"CITY OF NORCO",
    "alt_name":"Norco",
    "alt_type":"City",
    "latitude":33.92,
    "longitude":-117.55,
    "state":"CA"
  },
  {
    "_id":3831,
    "gov_name":"CITY OF INDIAN WELLS",
    "alt_name":"Indian Wells",
    "alt_type":"City",
    "latitude":33.71,
    "longitude":-116.33,
    "state":"CA"
  },
  {
    "_id":3832,
    "gov_name":"CITY OF RANCHO MIRAGE",
    "alt_name":"Rancho Mirage",
    "alt_type":"City",
    "latitude":33.76,
    "longitude":-116.42,
    "state":"CA"
  },
  {
    "_id":3833,
    "gov_name":"CITY OF PALM DESERT",
    "alt_name":"Palm Desert",
    "alt_type":"City",
    "latitude":33.68,
    "longitude":-116.4,
    "state":"CA"
  },
  {
    "_id":3834,
    "gov_name":"CITY OF FOLSOM",
    "alt_name":"Folsom",
    "alt_type":"City",
    "latitude":38.67,
    "longitude":-121.15,
    "state":"CA"
  },
  {
    "_id":3835,
    "gov_name":"CITY OF GALT",
    "alt_name":"Galt",
    "alt_type":"City",
    "latitude":38.26,
    "longitude":-121.3,
    "state":"CA"
  },
  {
    "_id":3836,
    "gov_name":"CITY OF ISLETON",
    "alt_name":"Isleton",
    "alt_type":"City",
    "latitude":38.15,
    "longitude":-121.6,
    "state":"CA"
  },
  {
    "_id":3837,
    "gov_name":"CITY OF SACRAMENTO",
    "alt_name":"Sacramento",
    "alt_type":"City",
    "latitude":38.58,
    "longitude":-121.49,
    "state":"CA"
  },
  {
    "_id":3838,
    "gov_name":"CITY OF RANCHO CORDOVA",
    "alt_name":"Rancho Cordova",
    "alt_type":"City",
    "latitude":38.6,
    "longitude":-121.27,
    "state":"CA"
  },
  {
    "_id":3839,
    "gov_name":"CITY OF CITRUS HEIGHTS",
    "alt_name":"Citrus Heights",
    "alt_type":"City",
    "latitude":38.69,
    "longitude":-121.3,
    "state":"CA"
  },
  {
    "_id":3840,
    "gov_name":"CITY OF ELK GROVE",
    "alt_name":"Elk Grove",
    "alt_type":"City",
    "latitude":38.42,
    "longitude":-121.43,
    "state":"CA"
  },
  {
    "_id":3841,
    "gov_name":"CITY OF HOLLISTER",
    "alt_name":"Hollister",
    "alt_type":"City",
    "latitude":36.83,
    "longitude":-121.34,
    "state":"CA"
  },
  {
    "_id":3842,
    "gov_name":"CITY OF SAN JUAN BAUTISTA",
    "alt_name":"San Juan Bautista",
    "alt_type":"City",
    "latitude":36.84,
    "longitude":-121.53,
    "state":"CA"
  },
  {
    "_id":3843,
    "gov_name":"CITY OF BARSTOW",
    "alt_name":"Barstow",
    "alt_type":"City",
    "latitude":34.89,
    "longitude":-117.03,
    "state":"CA"
  },
  {
    "_id":3844,
    "gov_name":"CITY OF CHINO",
    "alt_name":"Chino",
    "alt_type":"City",
    "latitude":33.95,
    "longitude":-117.64,
    "state":"CA"
  },
  {
    "_id":3845,
    "gov_name":"CITY OF COLTON",
    "alt_name":"Colton",
    "alt_type":"City",
    "latitude":34.03,
    "longitude":-117.28,
    "state":"CA"
  },
  {
    "_id":3846,
    "gov_name":"CITY OF FONTANA",
    "alt_name":"Fontana",
    "alt_type":"City",
    "latitude":34.07,
    "longitude":-117.45,
    "state":"CA"
  },
  {
    "_id":3847,
    "gov_name":"CITY OF NEEDLES",
    "alt_name":"Needles",
    "alt_type":"City",
    "latitude":34.78,
    "longitude":-114.58,
    "state":"CA"
  },
  {
    "_id":3848,
    "gov_name":"TUOLUMNE COUNTY SPECIAL EDCUCATION LOCAL PLAN AREA",
    "alt_name":"Tuolumne County Superintendent of Schools",
    "alt_type":"School District",
    "latitude":37.99,
    "longitude":-120.33,
    "state":"CA"
  },
  {
    "_id":3849,
    "gov_name":"COUNTY OF VENTURA",
    "alt_name":"Ventura County",
    "alt_type":"County",
    "latitude":34.35,
    "longitude":-119.14,
    "state":"CA"
  },
  {
    "_id":3850,
    "gov_name":"VENTURA COUNTY SPECIAL SCHOOLS",
    "alt_name":"Ventura County Office of Education",
    "alt_type":"School District",
    "latitude":34.22,
    "longitude":-118.98,
    "state":"CA"
  },
  {
    "_id":3851,
    "gov_name":"COUNTY OF YOLO",
    "alt_name":"Yolo County",
    "alt_type":"County",
    "latitude":38.68,
    "longitude":-121.8,
    "state":"CA"
  },
  {
    "_id":3852,
    "gov_name":"YOLO COUNTY SPECIAL SCHOOLS",
    "alt_name":"Yolo County Office of Education",
    "alt_type":"School District",
    "latitude":38.68,
    "longitude":-121.74,
    "state":"CA"
  },
  {
    "_id":3853,
    "gov_name":"COUNTY OF YUBA",
    "alt_name":"Yuba County",
    "alt_type":"County",
    "latitude":39.16,
    "longitude":-121.51,
    "state":"CA"
  },
  {
    "_id":3854,
    "gov_name":"YUBA COUNTY SPECIAL SCHOOLS",
    "alt_name":"Yuba County Office of Education",
    "alt_type":"School District",
    "latitude":39.16,
    "longitude":-121.51,
    "state":"CA"
  },
  {
    "_id":3855,
    "gov_name":"CITY OF ALAMEDA",
    "alt_name":"Alameda",
    "alt_type":"City",
    "latitude":37.77,
    "longitude":-122.26,
    "state":"CA"
  },
  {
    "_id":3856,
    "gov_name":"CITY OF MONTEREY PARK",
    "alt_name":"Monterey Park",
    "alt_type":"City",
    "latitude":34.05,
    "longitude":-118.12,
    "state":"CA"
  },
  {
    "_id":3857,
    "gov_name":"CITY OF PALOS VERDES ESTATES",
    "alt_name":"Palos Verdes Estates",
    "alt_type":"City",
    "latitude":33.78,
    "longitude":-118.29,
    "state":"CA"
  },
  {
    "_id":3858,
    "gov_name":"CITY OF PASADENA",
    "alt_name":"Pasadena",
    "alt_type":"City",
    "latitude":33.78,
    "longitude":-118.29,
    "state":"CA"
  },
  {
    "_id":3859,
    "gov_name":"CITY OF POMONA",
    "alt_name":"Pomona",
    "alt_type":"City",
    "latitude":33.78,
    "longitude":-118.29,
    "state":"CA"
  },
  {
    "_id":3860,
    "gov_name":"CITY OF REDONDO BEACH",
    "alt_name":"Redondo Beach",
    "alt_type":"City",
    "latitude":33.83,
    "longitude":-118.38,
    "state":"CA"
  },
  {
    "_id":3861,
    "gov_name":"CITY OF SAN FERNANDO",
    "alt_name":"San Fernando",
    "alt_type":"City",
    "latitude":34.28,
    "longitude":-118.43,
    "state":"CA"
  },
  {
    "_id":3862,
    "gov_name":"CITY OF SAN GABRIEL",
    "alt_name":"San Gabriel",
    "alt_type":"City",
    "latitude":34.08,
    "longitude":-118.09,
    "state":"CA"
  },
  {
    "_id":3863,
    "gov_name":"CITY OF SAN MARINO",
    "alt_name":"San Marino",
    "alt_type":"City",
    "latitude":34.12,
    "longitude":-118.11,
    "state":"CA"
  },
  {
    "_id":3864,
    "gov_name":"CITY OF SANTA MONICA",
    "alt_name":"Santa Monica",
    "alt_type":"City",
    "latitude":33.78,
    "longitude":-118.29,
    "state":"CA"
  },
  {
    "_id":3865,
    "gov_name":"CITY OF SIERRA MADRE",
    "alt_name":"Sierra Madre",
    "alt_type":"City",
    "latitude":34.16,
    "longitude":-118.05,
    "state":"CA"
  },
  {
    "_id":3866,
    "gov_name":"CITY OF SIGNAL HILL",
    "alt_name":"Signal Hill",
    "alt_type":"City",
    "latitude":33.8,
    "longitude":-118.16,
    "state":"CA"
  },
  {
    "_id":3867,
    "gov_name":"CITY OF SOUTH GATE",
    "alt_name":"South Gate",
    "alt_type":"City",
    "latitude":33.94,
    "longitude":-118.2,
    "state":"CA"
  },
  {
    "_id":3868,
    "gov_name":"CITY OF SOUTH PASADENA",
    "alt_name":"South Pasadena",
    "alt_type":"City",
    "latitude":34.11,
    "longitude":-118.15,
    "state":"CA"
  },
  {
    "_id":3869,
    "gov_name":"CITY OF TORRANCE",
    "alt_name":"Torrance",
    "alt_type":"City",
    "latitude":33.83,
    "longitude":-118.35,
    "state":"CA"
  },
  {
    "_id":3870,
    "gov_name":"CITY OF VERNON",
    "alt_name":"Vernon",
    "alt_type":"City",
    "latitude":33.99,
    "longitude":-118.21,
    "state":"CA"
  },
  {
    "_id":3871,
    "gov_name":"CITY OF WEST COVINA",
    "alt_name":"West Covina",
    "alt_type":"City",
    "latitude":34.06,
    "longitude":-117.93,
    "state":"CA"
  },
  {
    "_id":3872,
    "gov_name":"CITY OF ALBANY",
    "alt_name":"Albany",
    "alt_type":"City",
    "latitude":37.89,
    "longitude":-122.29,
    "state":"CA"
  },
  {
    "_id":3873,
    "gov_name":"CITY OF BERKELEY",
    "alt_name":"Berkeley",
    "alt_type":"City",
    "latitude":37.86,
    "longitude":-122.25,
    "state":"CA"
  },
  {
    "_id":3874,
    "gov_name":"CITY OF EMERYVILLE",
    "alt_name":"Emeryville",
    "alt_type":"City",
    "latitude":37.83,
    "longitude":-122.28,
    "state":"CA"
  },
  {
    "_id":3875,
    "gov_name":"CITY OF FREMONT",
    "alt_name":"Fremont",
    "alt_type":"City",
    "latitude":37.68,
    "longitude":-121.92,
    "state":"CA"
  },
  {
    "_id":3876,
    "gov_name":"CITY OF HAYWARD",
    "alt_name":"Hayward",
    "alt_type":"City",
    "latitude":37.67,
    "longitude":-122.08,
    "state":"CA"
  },
  {
    "_id":3877,
    "gov_name":"CITY OF LIVERMORE",
    "alt_name":"Livermore",
    "alt_type":"City",
    "latitude":37.68,
    "longitude":-121.76,
    "state":"CA"
  },
  {
    "_id":3878,
    "gov_name":"CITY OF NEWARK",
    "alt_name":"Newark",
    "alt_type":"City",
    "latitude":37.53,
    "longitude":-122.03,
    "state":"CA"
  },
  {
    "_id":3879,
    "gov_name":"CITY OF OAKLAND",
    "alt_name":"Oakland",
    "alt_type":"City",
    "latitude":37.8,
    "longitude":-122.26,
    "state":"CA"
  },
  {
    "_id":3880,
    "gov_name":"CITY OF PIEDMONT",
    "alt_name":"Piedmont",
    "alt_type":"City",
    "latitude":37.84,
    "longitude":-122.22,
    "state":"CA"
  },
  {
    "_id":3881,
    "gov_name":"CITY OF PLEASANTON",
    "alt_name":"Pleasanton",
    "alt_type":"City",
    "latitude":37.66,
    "longitude":-121.87,
    "state":"CA"
  },
  {
    "_id":3882,
    "gov_name":"CITY OF SAN LEANDRO",
    "alt_name":"San Leandro",
    "alt_type":"City",
    "latitude":37.72,
    "longitude":-122.15,
    "state":"CA"
  },
  {
    "_id":3883,
    "gov_name":"CITY OF UNION CITY",
    "alt_name":"Union City",
    "alt_type":"City",
    "latitude":37.58,
    "longitude":-122.04,
    "state":"CA"
  },
  {
    "_id":3884,
    "gov_name":"CITY OF DUBLIN",
    "alt_name":"Dublin",
    "alt_type":"City",
    "latitude":37.71,
    "longitude":-121.92,
    "state":"CA"
  },
  {
    "_id":3885,
    "gov_name":"CITY OF AMADOR CITY",
    "alt_name":"Amador",
    "alt_type":"City",
    "latitude":38.41,
    "longitude":-120.82,
    "state":"CA"
  },
  {
    "_id":3886,
    "gov_name":"CITY OF IONE",
    "alt_name":"Ione",
    "alt_type":"City",
    "latitude":38.33,
    "longitude":-120.94,
    "state":"CA"
  },
  {
    "_id":3887,
    "gov_name":"CITY OF JACKSON",
    "alt_name":"Jackson",
    "alt_type":"City",
    "latitude":38.35,
    "longitude":-120.75,
    "state":"CA"
  },
  {
    "_id":3888,
    "gov_name":"CITY OF PLYMOUTH",
    "alt_name":"Plymouth",
    "alt_type":"City",
    "latitude":38.49,
    "longitude":-120.88,
    "state":"CA"
  },
  {
    "_id":3889,
    "gov_name":"CITY OF SUTTER CREEK",
    "alt_name":"Sutter Creek",
    "alt_type":"City",
    "latitude":38.41,
    "longitude":-120.79,
    "state":"CA"
  },
  {
    "_id":3890,
    "gov_name":"CITY OF BIGGS",
    "alt_name":"Biggs",
    "alt_type":"City",
    "latitude":39.41,
    "longitude":-121.71,
    "state":"CA"
  },
  {
    "_id":3891,
    "gov_name":"CITY OF CHICO",
    "alt_name":"Chico",
    "alt_type":"City",
    "latitude":39.81,
    "longitude":-121.93,
    "state":"CA"
  },
  {
    "_id":3892,
    "gov_name":"CITY OF GRIDLEY",
    "alt_name":"Gridley",
    "alt_type":"City",
    "latitude":39.35,
    "longitude":-121.71,
    "state":"CA"
  },
  {
    "_id":3893,
    "gov_name":"CITY OF OROVILLE",
    "alt_name":"Oroville",
    "alt_type":"City",
    "latitude":39.6,
    "longitude":-121.57,
    "state":"CA"
  },
  {
    "_id":3894,
    "gov_name":"TOWN OF PARADISE",
    "alt_name":"Paradise",
    "alt_type":"City",
    "latitude":39.75,
    "longitude":-121.6,
    "state":"CA"
  },
  {
    "_id":3895,
    "gov_name":"CITY OF ANGELS CITY",
    "alt_name":"Angels",
    "alt_type":"City",
    "latitude":38.07,
    "longitude":-120.57,
    "state":"CA"
  },
  {
    "_id":3896,
    "gov_name":"CITY OF COLUSA",
    "alt_name":"Colusa",
    "alt_type":"City",
    "latitude":39.23,
    "longitude":-122.02,
    "state":"CA"
  },
  {
    "_id":3897,
    "gov_name":"CITY OF WILLIAMS",
    "alt_name":"Williams",
    "alt_type":"City",
    "latitude":39.13,
    "longitude":-122.21,
    "state":"CA"
  },
  {
    "_id":3898,
    "gov_name":"CITY OF ANTIOCH",
    "alt_name":"Antioch",
    "alt_type":"City",
    "latitude":37.96,
    "longitude":-121.77,
    "state":"CA"
  },
  {
    "_id":3899,
    "gov_name":"CITY OF BRENTWOOD",
    "alt_name":"Brentwood",
    "alt_type":"City",
    "latitude":37.93,
    "longitude":-121.68,
    "state":"CA"
  },
  {
    "_id":3900,
    "gov_name":"CITY OF CONCORD",
    "alt_name":"Concord",
    "alt_type":"City",
    "latitude":37.98,
    "longitude":-122.01,
    "state":"CA"
  },
  {
    "_id":3901,
    "gov_name":"CITY OF EL CERRITO",
    "alt_name":"El Cerrito",
    "alt_type":"City",
    "latitude":37.91,
    "longitude":-122.29,
    "state":"CA"
  },
  {
    "_id":3902,
    "gov_name":"CITY OF HERCULES",
    "alt_name":"Hercules",
    "alt_type":"City",
    "latitude":38,
    "longitude":-122.26,
    "state":"CA"
  },
  {
    "_id":3903,
    "gov_name":"CITY OF MARTINEZ",
    "alt_name":"Martinez",
    "alt_type":"City",
    "latitude":37.98,
    "longitude":-122.13,
    "state":"CA"
  },
  {
    "_id":3904,
    "gov_name":"CITY OF PINOLE",
    "alt_name":"Pinole",
    "alt_type":"City",
    "latitude":37.99,
    "longitude":-122.28,
    "state":"CA"
  },
  {
    "_id":3905,
    "gov_name":"CITY OF PITTSBURG",
    "alt_name":"Pittsburg",
    "alt_type":"City",
    "latitude":38,
    "longitude":-121.91,
    "state":"CA"
  },
  {
    "_id":3906,
    "gov_name":"CITY OF RICHMOND",
    "alt_name":"Richmond",
    "alt_type":"City",
    "latitude":37.92,
    "longitude":-122.33,
    "state":"CA"
  },
  {
    "_id":3907,
    "gov_name":"CITY OF SAN PABLO",
    "alt_name":"San Pablo",
    "alt_type":"City",
    "latitude":37.97,
    "longitude":-122.33,
    "state":"CA"
  },
  {
    "_id":3908,
    "gov_name":"CITY OF WALNUT CREEK",
    "alt_name":"Walnut Creek",
    "alt_type":"City",
    "latitude":37.9,
    "longitude":-122.05,
    "state":"CA"
  },
  {
    "_id":3909,
    "gov_name":"CITY OF OAKLEY",
    "alt_name":"Oakley",
    "alt_type":"City",
    "latitude":37.99,
    "longitude":-121.7,
    "state":"CA"
  },
  {
    "_id":3910,
    "gov_name":"CITY OF ORINDA",
    "alt_name":"Orinda",
    "alt_type":"City",
    "latitude":37.87,
    "longitude":-122.17,
    "state":"CA"
  },
  {
    "_id":3911,
    "gov_name":"TOWN OF DANVILLE",
    "alt_name":"Danville",
    "alt_type":"City",
    "latitude":37.81,
    "longitude":-121.96,
    "state":"CA"
  },
  {
    "_id":3912,
    "gov_name":"CITY OF SAN RAMON",
    "alt_name":"San Ramon",
    "alt_type":"City",
    "latitude":37.75,
    "longitude":-121.95,
    "state":"CA"
  },
  {
    "_id":3913,
    "gov_name":"CITY OF CLAYTON",
    "alt_name":"Clayton",
    "alt_type":"City",
    "latitude":37.91,
    "longitude":-121.91,
    "state":"CA"
  },
  {
    "_id":3914,
    "gov_name":"CITY OF PLEASANT HILL",
    "alt_name":"Pleasant Hill",
    "alt_type":"City",
    "latitude":37.95,
    "longitude":-122.07,
    "state":"CA"
  },
  {
    "_id":3915,
    "gov_name":"CITY OF LAFAYETTE",
    "alt_name":"Lafayette",
    "alt_type":"City",
    "latitude":37.89,
    "longitude":-122.11,
    "state":"CA"
  },
  {
    "_id":3916,
    "gov_name":"TOWN OF MORAGA",
    "alt_name":"Moraga",
    "alt_type":"City",
    "latitude":37.84,
    "longitude":-122.12,
    "state":"CA"
  },
  {
    "_id":3917,
    "gov_name":"CITY OF CRESCENT CITY",
    "alt_name":"Crescent City",
    "alt_type":"City",
    "latitude":41.78,
    "longitude":-124.13,
    "state":"CA"
  },
  {
    "_id":3918,
    "gov_name":"CITY OF PLACERVILLE",
    "alt_name":"Placerville",
    "alt_type":"City",
    "latitude":38.71,
    "longitude":-120.8,
    "state":"CA"
  },
  {
    "_id":3919,
    "gov_name":"CITY OF SOUTH LAKE TAHOE",
    "alt_name":"South Lake Tahoe",
    "alt_type":"City",
    "latitude":38.91,
    "longitude":-119.98,
    "state":"CA"
  },
  {
    "_id":3920,
    "gov_name":"CITY OF CLOVIS",
    "alt_name":"Clovis",
    "alt_type":"City",
    "latitude":36.81,
    "longitude":-119.71,
    "state":"CA"
  },
  {
    "_id":3921,
    "gov_name":"CITY OF COALINGA",
    "alt_name":"Coalinga",
    "alt_type":"City",
    "latitude":36.16,
    "longitude":-120.34,
    "state":"CA"
  },
  {
    "_id":3922,
    "gov_name":"CITY OF FIREBAUGH",
    "alt_name":"Firebaugh",
    "alt_type":"City",
    "latitude":36.86,
    "longitude":-120.47,
    "state":"CA"
  },
  {
    "_id":3923,
    "gov_name":"CITY OF FOWLER",
    "alt_name":"Fowler",
    "alt_type":"City",
    "latitude":36.62,
    "longitude":-119.67,
    "state":"CA"
  },
  {
    "_id":3924,
    "gov_name":"CITY OF FRESNO",
    "alt_name":"Fresno",
    "alt_type":"City",
    "latitude":36.73,
    "longitude":-119.78,
    "state":"CA"
  },
  {
    "_id":3925,
    "gov_name":"CITY OF HURON",
    "alt_name":"Huron",
    "alt_type":"City",
    "latitude":36.23,
    "longitude":-120.1,
    "state":"CA"
  },
  {
    "_id":3926,
    "gov_name":"CITY OF KERMAN",
    "alt_name":"Kerman",
    "alt_type":"City",
    "latitude":36.73,
    "longitude":-120.07,
    "state":"CA"
  },
  {
    "_id":3927,
    "gov_name":"CITY OF KINGSBURG",
    "alt_name":"Kingsburg",
    "alt_type":"City",
    "latitude":36.5,
    "longitude":-119.54,
    "state":"CA"
  },
  {
    "_id":3928,
    "gov_name":"CITY OF MENDOTA",
    "alt_name":"Mendota",
    "alt_type":"City",
    "latitude":36.74,
    "longitude":-120.4,
    "state":"CA"
  },
  {
    "_id":3929,
    "gov_name":"CITY OF ORANGE COVE",
    "alt_name":"Orange Cove",
    "alt_type":"City",
    "latitude":36.62,
    "longitude":-119.32,
    "state":"CA"
  },
  {
    "_id":3930,
    "gov_name":"CITY OF PARLIER",
    "alt_name":"Parlier",
    "alt_type":"City",
    "latitude":36.61,
    "longitude":-119.53,
    "state":"CA"
  },
  {
    "_id":3931,
    "gov_name":"CITY OF REEDLEY",
    "alt_name":"Reedley",
    "alt_type":"City",
    "latitude":36.6,
    "longitude":-119.43,
    "state":"CA"
  },
  {
    "_id":3932,
    "gov_name":"CITY OF SANGER",
    "alt_name":"Sanger",
    "alt_type":"City",
    "latitude":36.72,
    "longitude":-119.54,
    "state":"CA"
  },
  {
    "_id":3933,
    "gov_name":"CITY OF SAN JOAQUIN",
    "alt_name":"San Joaquin",
    "alt_type":"City",
    "latitude":36.6,
    "longitude":-120.18,
    "state":"CA"
  },
  {
    "_id":3934,
    "gov_name":"CITY OF SELMA",
    "alt_name":"Selma",
    "alt_type":"City",
    "latitude":36.56,
    "longitude":-119.61,
    "state":"CA"
  },
  {
    "_id":3935,
    "gov_name":"CITY OF ORLAND",
    "alt_name":"Orland",
    "alt_type":"City",
    "latitude":39.73,
    "longitude":-122.25,
    "state":"CA"
  },
  {
    "_id":3936,
    "gov_name":"CITY OF WILLOWS",
    "alt_name":"Willows",
    "alt_type":"City",
    "latitude":39.53,
    "longitude":-122.25,
    "state":"CA"
  },
  {
    "_id":3937,
    "gov_name":"CITY OF ARCATA",
    "alt_name":"Arcata",
    "alt_type":"City",
    "latitude":40.87,
    "longitude":-124.07,
    "state":"CA"
  },
  {
    "_id":3938,
    "gov_name":"CITY OF BLUE LAKE",
    "alt_name":"Blue Lake",
    "alt_type":"City",
    "latitude":40.93,
    "longitude":-123.89,
    "state":"CA"
  },
  {
    "_id":3939,
    "gov_name":"CITY OF EUREKA",
    "alt_name":"Eureka",
    "alt_type":"City",
    "latitude":40.79,
    "longitude":-124.15,
    "state":"CA"
  },
  {
    "_id":3940,
    "gov_name":"CITY OF FERNDALE",
    "alt_name":"Ferndale",
    "alt_type":"City",
    "latitude":40.52,
    "longitude":-124.25,
    "state":"CA"
  },
  {
    "_id":3941,
    "gov_name":"CITY OF FORTUNA",
    "alt_name":"Fortuna",
    "alt_type":"City",
    "latitude":40.58,
    "longitude":-124.14,
    "state":"CA"
  },
  {
    "_id":3942,
    "gov_name":"CITY OF TRINIDAD",
    "alt_name":"Trinidad",
    "alt_type":"City",
    "latitude":41.09,
    "longitude":-124.11,
    "state":"CA"
  },
  {
    "_id":3943,
    "gov_name":"CITY OF RIO DELL",
    "alt_name":"Rio Dell",
    "alt_type":"City",
    "latitude":40.49,
    "longitude":-124.11,
    "state":"CA"
  },
  {
    "_id":3944,
    "gov_name":"CITY OF BRAWLEY",
    "alt_name":"Brawley",
    "alt_type":"City",
    "latitude":32.97,
    "longitude":-115.52,
    "state":"CA"
  },
  {
    "_id":3945,
    "gov_name":"CITY OF CALEXICO",
    "alt_name":"Calexico",
    "alt_type":"City",
    "latitude":32.68,
    "longitude":-115.5,
    "state":"CA"
  },
  {
    "_id":3946,
    "gov_name":"CITY OF CALIPATRIA",
    "alt_name":"Calipatria",
    "alt_type":"City",
    "latitude":33.16,
    "longitude":-115.51,
    "state":"CA"
  },
  {
    "_id":3947,
    "gov_name":"CITY OF EL CENTRO",
    "alt_name":"El Centro",
    "alt_type":"City",
    "latitude":32.78,
    "longitude":-115.56,
    "state":"CA"
  },
  {
    "_id":3948,
    "gov_name":"CITY OF HOLTVILLE",
    "alt_name":"Holtville",
    "alt_type":"City",
    "latitude":32.81,
    "longitude":-115.37,
    "state":"CA"
  },
  {
    "_id":3949,
    "gov_name":"CITY OF IMPERIAL",
    "alt_name":"Imperial",
    "alt_type":"City",
    "latitude":32.84,
    "longitude":-115.57,
    "state":"CA"
  },
  {
    "_id":3950,
    "gov_name":"CITY OF WESTMORLAND",
    "alt_name":"Westmorland",
    "alt_type":"City",
    "latitude":33.03,
    "longitude":-115.59,
    "state":"CA"
  },
  {
    "_id":3951,
    "gov_name":"CITY OF BISHOP",
    "alt_name":"Bishop",
    "alt_type":"City",
    "latitude":36.62,
    "longitude":-117.21,
    "state":"CA"
  },
  {
    "_id":3952,
    "gov_name":"CITY OF BAKERSFIELD",
    "alt_name":"Bakersfield",
    "alt_type":"City",
    "latitude":35.38,
    "longitude":-119.01,
    "state":"CA"
  },
  {
    "_id":3953,
    "gov_name":"CITY OF DELANO",
    "alt_name":"Delano",
    "alt_type":"City",
    "latitude":35.29,
    "longitude":-118.9,
    "state":"CA"
  },
  {
    "_id":3954,
    "gov_name":"CITY OF MARICOPA",
    "alt_name":"Maricopa",
    "alt_type":"City",
    "latitude":35.03,
    "longitude":-119.4,
    "state":"CA"
  },
  {
    "_id":3955,
    "gov_name":"CITY OF SHAFTER",
    "alt_name":"Shafter",
    "alt_type":"City",
    "latitude":35.49,
    "longitude":-119.28,
    "state":"CA"
  },
  {
    "_id":3956,
    "gov_name":"CITY OF TAFT",
    "alt_name":"Taft",
    "alt_type":"City",
    "latitude":35.14,
    "longitude":-119.45,
    "state":"CA"
  },
  {
    "_id":3957,
    "gov_name":"CITY OF TEHACHAPI",
    "alt_name":"Tehachapi",
    "alt_type":"City",
    "latitude":35.04,
    "longitude":-118.5,
    "state":"CA"
  },
  {
    "_id":3958,
    "gov_name":"CITY OF WASCO",
    "alt_name":"Wasco",
    "alt_type":"City",
    "latitude":35.64,
    "longitude":-119.44,
    "state":"CA"
  },
  {
    "_id":3959,
    "gov_name":"CITY OF MCFARLAND",
    "alt_name":"Mcfarland",
    "alt_type":"City",
    "latitude":35.67,
    "longitude":-119.22,
    "state":"CA"
  },
  {
    "_id":3960,
    "gov_name":"CITY OF ARVIN",
    "alt_name":"Arvin",
    "alt_type":"City",
    "latitude":35.19,
    "longitude":-118.83,
    "state":"CA"
  },
  {
    "_id":3961,
    "gov_name":"CITY OF RIDGECREST",
    "alt_name":"Ridgecrest",
    "alt_type":"City",
    "latitude":35.54,
    "longitude":-117.79,
    "state":"CA"
  },
  {
    "_id":3962,
    "gov_name":"CITY OF CALIFORNIA CITY",
    "alt_name":"California City",
    "alt_type":"City",
    "latitude":35.12,
    "longitude":-117.96,
    "state":"CA"
  },
  {
    "_id":3963,
    "gov_name":"CITY OF CORCORAN",
    "alt_name":"Corcoran",
    "alt_type":"City",
    "latitude":36.08,
    "longitude":-119.56,
    "state":"CA"
  },
  {
    "_id":3964,
    "gov_name":"CITY OF HANFORD",
    "alt_name":"Hanford",
    "alt_type":"City",
    "latitude":36.33,
    "longitude":-119.64,
    "state":"CA"
  },
  {
    "_id":3965,
    "gov_name":"CITY OF LEMOORE",
    "alt_name":"Lemoore",
    "alt_type":"City",
    "latitude":36.26,
    "longitude":-119.81,
    "state":"CA"
  },
  {
    "_id":3966,
    "gov_name":"CITY OF AVENAL",
    "alt_name":"Avenal",
    "alt_type":"City",
    "latitude":35.98,
    "longitude":-120.12,
    "state":"CA"
  },
  {
    "_id":3967,
    "gov_name":"CITY OF LAKEPORT",
    "alt_name":"Lakeport",
    "alt_type":"City",
    "latitude":39.04,
    "longitude":-122.93,
    "state":"CA"
  },
  {
    "_id":3968,
    "gov_name":"CITY OF CLEARLAKE",
    "alt_name":"Clearlake",
    "alt_type":"City",
    "latitude":38.95,
    "longitude":-122.63,
    "state":"CA"
  },
  {
    "_id":3969,
    "gov_name":"CITY OF SUSANVILLE",
    "alt_name":"Susanville",
    "alt_type":"City",
    "latitude":40.39,
    "longitude":-120.64,
    "state":"CA"
  },
  {
    "_id":3970,
    "gov_name":"CITY OF ALHAMBRA",
    "alt_name":"Alhambra",
    "alt_type":"City",
    "latitude":33.78,
    "longitude":-118.29,
    "state":"CA"
  },
  {
    "_id":3971,
    "gov_name":"CITY OF ARCADIA",
    "alt_name":"Arcadia",
    "alt_type":"City",
    "latitude":33.78,
    "longitude":-118.29,
    "state":"CA"
  },
  {
    "_id":3972,
    "gov_name":"CITY OF AVALON",
    "alt_name":"Avalon",
    "alt_type":"City",
    "latitude":33.33,
    "longitude":-118.34,
    "state":"CA"
  },
  {
    "_id":3973,
    "gov_name":"CITY OF AZUSA",
    "alt_name":"Azusa",
    "alt_type":"City",
    "latitude":34.12,
    "longitude":-117.9,
    "state":"CA"
  },
  {
    "_id":3974,
    "gov_name":"CITY OF BALDWIN PARK",
    "alt_name":"Baldwin Park",
    "alt_type":"City",
    "latitude":34.09,
    "longitude":-117.96,
    "state":"CA"
  },
  {
    "_id":3975,
    "gov_name":"CITY OF BELL",
    "alt_name":"Bell",
    "alt_type":"City",
    "latitude":33.97,
    "longitude":-118.16,
    "state":"CA"
  },
  {
    "_id":3976,
    "gov_name":"CITY OF BEVERLY HILLS",
    "alt_name":"Beverly Hills",
    "alt_type":"City",
    "latitude":34.09,
    "longitude":-118.4,
    "state":"CA"
  },
  {
    "_id":3977,
    "gov_name":"CITY OF BURBANK",
    "alt_name":"Burbank",
    "alt_type":"City",
    "latitude":33.78,
    "longitude":-118.29,
    "state":"CA"
  },
  {
    "_id":3978,
    "gov_name":"CITY OF CLAREMONT",
    "alt_name":"Claremont",
    "alt_type":"City",
    "latitude":34.1,
    "longitude":-117.71,
    "state":"CA"
  },
  {
    "_id":3979,
    "gov_name":"CITY OF COMPTON",
    "alt_name":"Compton",
    "alt_type":"City",
    "latitude":33.78,
    "longitude":-118.29,
    "state":"CA"
  },
  {
    "_id":3980,
    "gov_name":"CITY OF COVINA",
    "alt_name":"Covina",
    "alt_type":"City",
    "latitude":34.08,
    "longitude":-117.88,
    "state":"CA"
  },
  {
    "_id":3981,
    "gov_name":"CITY OF CULVER CITY",
    "alt_name":"Culver City",
    "alt_type":"City",
    "latitude":34.01,
    "longitude":-118.39,
    "state":"CA"
  },
  {
    "_id":3982,
    "gov_name":"CITY OF CERRITOS",
    "alt_name":"Cerritos",
    "alt_type":"City",
    "latitude":33.86,
    "longitude":-118.06,
    "state":"CA"
  },
  {
    "_id":3983,
    "gov_name":"CITY OF EL MONTE",
    "alt_name":"El Monte",
    "alt_type":"City",
    "latitude":33.78,
    "longitude":-118.29,
    "state":"CA"
  },
  {
    "_id":3984,
    "gov_name":"CITY OF EL SEGUNDO",
    "alt_name":"El Segundo",
    "alt_type":"City",
    "latitude":33.92,
    "longitude":-118.41,
    "state":"CA"
  },
  {
    "_id":3985,
    "gov_name":"CITY OF GARDENA",
    "alt_name":"Gardena",
    "alt_type":"City",
    "latitude":33.89,
    "longitude":-118.29,
    "state":"CA"
  },
  {
    "_id":3986,
    "gov_name":"CITY OF GLENDALE",
    "alt_name":"Glendale",
    "alt_type":"City",
    "latitude":34.15,
    "longitude":-118.23,
    "state":"CA"
  },
  {
    "_id":3987,
    "gov_name":"CITY OF GLENDORA",
    "alt_name":"Glendora",
    "alt_type":"City",
    "latitude":34.15,
    "longitude":-117.84,
    "state":"CA"
  },
  {
    "_id":3988,
    "gov_name":"CITY OF HAWTHORNE",
    "alt_name":"Hawthorne",
    "alt_type":"City",
    "latitude":33.91,
    "longitude":-118.34,
    "state":"CA"
  },
  {
    "_id":3989,
    "gov_name":"CITY OF HERMOSA BEACH",
    "alt_name":"Hermosa Beach",
    "alt_type":"City",
    "latitude":33.86,
    "longitude":-118.39,
    "state":"CA"
  },
  {
    "_id":3990,
    "gov_name":"CITY OF HUNTINGTON PARK",
    "alt_name":"Huntington Park",
    "alt_type":"City",
    "latitude":33.97,
    "longitude":-118.21,
    "state":"CA"
  },
  {
    "_id":3991,
    "gov_name":"CITY OF INGLEWOOD",
    "alt_name":"Inglewood",
    "alt_type":"City",
    "latitude":33.95,
    "longitude":-118.35,
    "state":"CA"
  },
  {
    "_id":3992,
    "gov_name":"CITY OF LAKEWOOD",
    "alt_name":"Lakewood",
    "alt_type":"City",
    "latitude":33.85,
    "longitude":-118.13,
    "state":"CA"
  },
  {
    "_id":3993,
    "gov_name":"CITY OF LA PUENTE",
    "alt_name":"La Puente",
    "alt_type":"City",
    "latitude":34.02,
    "longitude":-117.93,
    "state":"CA"
  },
  {
    "_id":3994,
    "gov_name":"CITY OF LA VERNE",
    "alt_name":"La Verne",
    "alt_type":"City",
    "latitude":34.11,
    "longitude":-117.77,
    "state":"CA"
  },
  {
    "_id":3995,
    "gov_name":"CITY OF LONG BEACH",
    "alt_name":"Long Beach",
    "alt_type":"City",
    "latitude":33.77,
    "longitude":-118.18,
    "state":"CA"
  },
  {
    "_id":3996,
    "gov_name":"CITY OF LOS ANGELES",
    "alt_name":"Los Angeles",
    "alt_type":"City",
    "latitude":34.06,
    "longitude":-118.23,
    "state":"CA"
  },
  {
    "_id":3997,
    "gov_name":"CITY OF LYNWOOD",
    "alt_name":"Lynwood",
    "alt_type":"City",
    "latitude":33.92,
    "longitude":-118.2,
    "state":"CA"
  },
  {
    "_id":3998,
    "gov_name":"CITY OF MANHATTAN BEACH",
    "alt_name":"Manhattan Beach",
    "alt_type":"City",
    "latitude":33.88,
    "longitude":-118.39,
    "state":"CA"
  },
  {
    "_id":3999,
    "gov_name":"CITY OF MAYWOOD",
    "alt_name":"Maywood",
    "alt_type":"City",
    "latitude":33.98,
    "longitude":-118.18,
    "state":"CA"
  },
  {
    "_id":4000,
    "gov_name":"CITY OF MONROVIA",
    "alt_name":"Monrovia",
    "alt_type":"City",
    "latitude":34.14,
    "longitude":-118,
    "state":"CA"
  },
  {
    "_id":4001,
    "gov_name":"CITY OF MONTEBELLO",
    "alt_name":"Montebello",
    "alt_type":"City",
    "latitude":34.01,
    "longitude":-118.11,
    "state":"CA"
  },
  {
    "_id":4002,
    "gov_name":"CITY OF WHITTIER",
    "alt_name":"Whittier",
    "alt_type":"City",
    "latitude":33.96,
    "longitude":-118.03,
    "state":"CA"
  },
  {
    "_id":4003,
    "gov_name":"CITY OF DOWNEY",
    "alt_name":"Downey",
    "alt_type":"City",
    "latitude":33.94,
    "longitude":-118.13,
    "state":"CA"
  },
  {
    "_id":4004,
    "gov_name":"CITY OF CALABASAS",
    "alt_name":"Calabasas",
    "alt_type":"City",
    "latitude":34.14,
    "longitude":-118.66,
    "state":"CA"
  },
  {
    "_id":4005,
    "gov_name":"CITY OF MALIBU",
    "alt_name":"Malibu",
    "alt_type":"City",
    "latitude":34.04,
    "longitude":-118.73,
    "state":"CA"
  },
  {
    "_id":4006,
    "gov_name":"CITY OF WEST HOLLYWOOD",
    "alt_name":"West Hollywood",
    "alt_type":"City",
    "latitude":34.09,
    "longitude":-118.37,
    "state":"CA"
  },
  {
    "_id":4007,
    "gov_name":"CITY OF SANTA CLARITA",
    "alt_name":"Santa Clarita",
    "alt_type":"City",
    "latitude":34.39,
    "longitude":-118.55,
    "state":"CA"
  },
  {
    "_id":4008,
    "gov_name":"CITY OF DIAMOND BAR",
    "alt_name":"Diamond Bar",
    "alt_type":"City",
    "latitude":34,
    "longitude":-117.8,
    "state":"CA"
  },
  {
    "_id":4009,
    "gov_name":"CITY OF BELLFLOWER",
    "alt_name":"Bellflower",
    "alt_type":"City",
    "latitude":33.88,
    "longitude":-118.12,
    "state":"CA"
  },
  {
    "_id":4010,
    "gov_name":"CITY OF BRADBURY",
    "alt_name":"Bradbury",
    "alt_type":"City",
    "latitude":34.14,
    "longitude":-117.96,
    "state":"CA"
  },
  {
    "_id":4011,
    "gov_name":"CITY OF DUARTE",
    "alt_name":"Duarte",
    "alt_type":"City",
    "latitude":34.14,
    "longitude":-117.95,
    "state":"CA"
  },
  {
    "_id":4012,
    "gov_name":"CITY OF INDUSTRY",
    "alt_name":"Industry",
    "alt_type":"City",
    "latitude":34.02,
    "longitude":-117.93,
    "state":"CA"
  },
  {
    "_id":4013,
    "gov_name":"CITY OF IRWINDALE",
    "alt_name":"Irwindale",
    "alt_type":"City",
    "latitude":34.09,
    "longitude":-117.96,
    "state":"CA"
  },
  {
    "_id":4014,
    "gov_name":"CITY OF NORWALK",
    "alt_name":"Norwalk",
    "alt_type":"City",
    "latitude":33.9,
    "longitude":-118.08,
    "state":"CA"
  },
  {
    "_id":4015,
    "gov_name":"CITY OF PARAMOUNT",
    "alt_name":"Paramount",
    "alt_type":"City",
    "latitude":33.89,
    "longitude":-118.16,
    "state":"CA"
  },
  {
    "_id":4016,
    "gov_name":"CITY OF PICO RIVERA",
    "alt_name":"Pico Rivera",
    "alt_type":"City",
    "latitude":33.98,
    "longitude":-118.08,
    "state":"CA"
  },
  {
    "_id":4017,
    "gov_name":"CITY OF ROLLING HILLS ESTATES",
    "alt_name":"Rolling Hills Estates",
    "alt_type":"City",
    "latitude":33.78,
    "longitude":-118.29,
    "state":"CA"
  },
  {
    "_id":4018,
    "gov_name":"CITY OF SANTA FE SPRINGS",
    "alt_name":"Santa Fe Springs",
    "alt_type":"City",
    "latitude":33.94,
    "longitude":-118.08,
    "state":"CA"
  },
  {
    "_id":4019,
    "gov_name":"CITY OF SOUTH EL MONTE",
    "alt_name":"South El Monte",
    "alt_type":"City",
    "latitude":34.05,
    "longitude":-118.04,
    "state":"CA"
  },
  {
    "_id":4020,
    "gov_name":"CITY OF WALNUT",
    "alt_name":"Walnut",
    "alt_type":"City",
    "latitude":34.01,
    "longitude":-117.85,
    "state":"CA"
  },
  {
    "_id":4021,
    "gov_name":"CITY OF ARTESIA",
    "alt_name":"Artesia",
    "alt_type":"City",
    "latitude":33.86,
    "longitude":-118.07,
    "state":"CA"
  },
  {
    "_id":4022,
    "gov_name":"CITY OF COMMERCE",
    "alt_name":"Commerce",
    "alt_type":"City",
    "latitude":33.99,
    "longitude":-118.15,
    "state":"CA"
  },
  {
    "_id":4023,
    "gov_name":"CITY OF LAWNDALE",
    "alt_name":"Lawndale",
    "alt_type":"City",
    "latitude":33.88,
    "longitude":-118.35,
    "state":"CA"
  },
  {
    "_id":4024,
    "gov_name":"CITY OF ROLLING HILLS",
    "alt_name":"Rolling Hills",
    "alt_type":"City",
    "latitude":33.78,
    "longitude":-118.29,
    "state":"CA"
  },
  {
    "_id":4025,
    "gov_name":"CITY OF BELL GARDENS",
    "alt_name":"Bell Gardens",
    "alt_type":"City",
    "latitude":33.97,
    "longitude":-118.16,
    "state":"CA"
  },
  {
    "_id":4026,
    "gov_name":"CITY OF CUDAHY",
    "alt_name":"Cudahy",
    "alt_type":"City",
    "latitude":33.97,
    "longitude":-118.16,
    "state":"CA"
  },
  {
    "_id":4027,
    "gov_name":"CITY OF LA MIRADA",
    "alt_name":"La Mirada",
    "alt_type":"City",
    "latitude":33.9,
    "longitude":-118.01,
    "state":"CA"
  },
  {
    "_id":4028,
    "gov_name":"CITY OF SAN DIMAS",
    "alt_name":"San Dimas",
    "alt_type":"City",
    "latitude":34.1,
    "longitude":-117.81,
    "state":"CA"
  },
  {
    "_id":4029,
    "gov_name":"CITY OF TEMPLE",
    "alt_name":"Temple City",
    "alt_type":"City",
    "latitude":34.1,
    "longitude":-118.05,
    "state":"CA"
  },
  {
    "_id":4030,
    "gov_name":"CITY OF ROSEMEAD",
    "alt_name":"Rosemead",
    "alt_type":"City",
    "latitude":34.06,
    "longitude":-118.08,
    "state":"CA"
  },
  {
    "_id":4031,
    "gov_name":"CITY OF LANCASTER",
    "alt_name":"Lancaster",
    "alt_type":"City",
    "latitude":34.69,
    "longitude":-118.14,
    "state":"CA"
  },
  {
    "_id":4032,
    "gov_name":"CITY OF LA HABRA HEIGHTS",
    "alt_name":"La Habra Heights",
    "alt_type":"City",
    "latitude":33.93,
    "longitude":-117.94,
    "state":"CA"
  },
  {
    "_id":4033,
    "gov_name":"CITY OF WESTLAKE VILLAGE",
    "alt_name":"Westlake Village",
    "alt_type":"City",
    "latitude":34.14,
    "longitude":-118.83,
    "state":"CA"
  },
  {
    "_id":4034,
    "gov_name":"CITY OF AGOURA HILLS",
    "alt_name":"Agoura Hills",
    "alt_type":"City",
    "latitude":34.12,
    "longitude":-118.75,
    "state":"CA"
  },
  {
    "_id":4035,
    "gov_name":"CITY OF HAWAIIAN GARDENS",
    "alt_name":"Hawaiian Gardens",
    "alt_type":"City",
    "latitude":33.82,
    "longitude":-118.07,
    "state":"CA"
  },
  {
    "_id":4036,
    "gov_name":"CITY OF HIDDEN HILLS",
    "alt_name":"Hidden Hills",
    "alt_type":"City",
    "latitude":34.14,
    "longitude":-118.66,
    "state":"CA"
  },
  {
    "_id":4037,
    "gov_name":"CITY OF LOMITA",
    "alt_name":"Lomita",
    "alt_type":"City",
    "latitude":33.79,
    "longitude":-118.31,
    "state":"CA"
  },
  {
    "_id":4038,
    "gov_name":"CITY OF PALMDALE",
    "alt_name":"Palmdale",
    "alt_type":"City",
    "latitude":34.41,
    "longitude":-118.09,
    "state":"CA"
  },
  {
    "_id":4039,
    "gov_name":"CITY OF CARSON",
    "alt_name":"Carson",
    "alt_type":"City",
    "latitude":33.78,
    "longitude":-118.29,
    "state":"CA"
  },
  {
    "_id":4040,
    "gov_name":"CITY OF RANCHO PALOS VERDES",
    "alt_name":"Rancho Palos Verdes",
    "alt_type":"City",
    "latitude":33.75,
    "longitude":-118.36,
    "state":"CA"
  },
  {
    "_id":4041,
    "gov_name":"CITY OF LA CANADA FLINTRIDGE",
    "alt_name":"La Canada Flintridge",
    "alt_type":"City",
    "latitude":34.22,
    "longitude":-118.2,
    "state":"CA"
  },
  {
    "_id":4042,
    "gov_name":"CITY OF CHOWCHILLA",
    "alt_name":"Chowchilla",
    "alt_type":"City",
    "latitude":37.1,
    "longitude":-120.26,
    "state":"CA"
  },
  {
    "_id":4043,
    "gov_name":"CITY OF MADERA",
    "alt_name":"Madera",
    "alt_type":"City",
    "latitude":36.94,
    "longitude":-120.08,
    "state":"CA"
  },
  {
    "_id":4044,
    "gov_name":"CITY OF BELVEDERE",
    "alt_name":"Belvedere",
    "alt_type":"City",
    "latitude":37.88,
    "longitude":-122.46,
    "state":"CA"
  },
  {
    "_id":4045,
    "gov_name":"TOWN OF CORTE MADERA",
    "alt_name":"Corte Madera",
    "alt_type":"City",
    "latitude":38.06,
    "longitude":-122.74,
    "state":"CA"
  },
  {
    "_id":4046,
    "gov_name":"TOWN OF FAIRFAX",
    "alt_name":"Fairfax",
    "alt_type":"City",
    "latitude":37.98,
    "longitude":-122.59,
    "state":"CA"
  },
  {
    "_id":4047,
    "gov_name":"CITY OF LARKSPUR",
    "alt_name":"Larkspur",
    "alt_type":"City",
    "latitude":37.93,
    "longitude":-122.53,
    "state":"CA"
  },
  {
    "_id":4048,
    "gov_name":"CITY OF MILL VALLEY",
    "alt_name":"Mill Valley",
    "alt_type":"City",
    "latitude":37.89,
    "longitude":-122.53,
    "state":"CA"
  },
  {
    "_id":4049,
    "gov_name":"TOWN OF ROSS",
    "alt_name":"Ross",
    "alt_type":"City",
    "latitude":38.02,
    "longitude":-122.56,
    "state":"CA"
  },
  {
    "_id":4050,
    "gov_name":"TOWN OF SAN ANSELMO",
    "alt_name":"San Anselmo",
    "alt_type":"City",
    "latitude":37.98,
    "longitude":-122.57,
    "state":"CA"
  },
  {
    "_id":4051,
    "gov_name":"CITY OF SAN RAFAEL",
    "alt_name":"San Rafael",
    "alt_type":"City",
    "latitude":38.07,
    "longitude":-122.55,
    "state":"CA"
  },
  {
    "_id":4052,
    "gov_name":"CITY OF SAUSALITO",
    "alt_name":"Sausalito",
    "alt_type":"City",
    "latitude":37.86,
    "longitude":-122.49,
    "state":"CA"
  },
  {
    "_id":4053,
    "gov_name":"CITY OF NOVATO",
    "alt_name":"Novato",
    "alt_type":"City",
    "latitude":38.11,
    "longitude":-122.57,
    "state":"CA"
  },
  {
    "_id":4054,
    "gov_name":"TOWN OF TIBURON",
    "alt_name":"Tiburon",
    "alt_type":"City",
    "latitude":37.88,
    "longitude":-122.46,
    "state":"CA"
  },
  {
    "_id":4055,
    "gov_name":"CITY OF FORT BRAGG",
    "alt_name":"Fort Bragg",
    "alt_type":"City",
    "latitude":39.44,
    "longitude":-123.77,
    "state":"CA"
  },
  {
    "_id":4056,
    "gov_name":"CITY OF POINT ARENA",
    "alt_name":"Point Arena",
    "alt_type":"City",
    "latitude":38.91,
    "longitude":-123.6,
    "state":"CA"
  },
  {
    "_id":4057,
    "gov_name":"CITY OF UKIAH",
    "alt_name":"Ukiah",
    "alt_type":"City",
    "latitude":39.15,
    "longitude":-123.19,
    "state":"CA"
  },
  {
    "_id":4058,
    "gov_name":"CITY OF WILLITS",
    "alt_name":"Willits",
    "alt_type":"City",
    "latitude":39.44,
    "longitude":-123.36,
    "state":"CA"
  },
  {
    "_id":4059,
    "gov_name":"CITY OF ATWATER",
    "alt_name":"Atwater",
    "alt_type":"City",
    "latitude":37.34,
    "longitude":-120.6,
    "state":"CA"
  },
  {
    "_id":4060,
    "gov_name":"CITY OF DOS PALOS",
    "alt_name":"Dos Palos",
    "alt_type":"City",
    "latitude":37,
    "longitude":-120.63,
    "state":"CA"
  },
  {
    "_id":4061,
    "gov_name":"CITY OF GUSTINE",
    "alt_name":"Gustine",
    "alt_type":"City",
    "latitude":37.2,
    "longitude":-121,
    "state":"CA"
  },
  {
    "_id":4062,
    "gov_name":"CITY OF LIVINGSTON",
    "alt_name":"Livingston",
    "alt_type":"City",
    "latitude":37.37,
    "longitude":-120.72,
    "state":"CA"
  },
  {
    "_id":4063,
    "gov_name":"CITY OF LOS BANOS",
    "alt_name":"Los Banos",
    "alt_type":"City",
    "latitude":37.06,
    "longitude":-120.85,
    "state":"CA"
  },
  {
    "_id":4064,
    "gov_name":"CITY OF MERCED",
    "alt_name":"Merced",
    "alt_type":"City",
    "latitude":37.29,
    "longitude":-120.46,
    "state":"CA"
  },
  {
    "_id":4065,
    "gov_name":"CITY OF ALTURAS",
    "alt_name":"Alturas",
    "alt_type":"City",
    "latitude":41.47,
    "longitude":-120.54,
    "state":"CA"
  },
  {
    "_id":4066,
    "gov_name":"TOWN OF MAMMOTH LAKES",
    "alt_name":"Mammoth Lakes",
    "alt_type":"City",
    "latitude":37.6,
    "longitude":-118.86,
    "state":"CA"
  },
  {
    "_id":4067,
    "gov_name":"CITY OF CARMEL BY THE SEA",
    "alt_name":"Carmel-By-The-Sea",
    "alt_type":"City",
    "latitude":36.54,
    "longitude":-121.92,
    "state":"CA"
  },
  {
    "_id":4068,
    "gov_name":"CITY OF DEL REY OAKS",
    "alt_name":"Del Rey Oaks",
    "alt_type":"City",
    "latitude":36.58,
    "longitude":-121.84,
    "state":"CA"
  },
  {
    "_id":4069,
    "gov_name":"CITY OF GONZALES",
    "alt_name":"Gonzales",
    "alt_type":"City",
    "latitude":36.49,
    "longitude":-121.41,
    "state":"CA"
  },
  {
    "_id":4070,
    "gov_name":"CITY OF GREENFIELD",
    "alt_name":"Greenfield",
    "alt_type":"City",
    "latitude":36.32,
    "longitude":-121.24,
    "state":"CA"
  },
  {
    "_id":4071,
    "gov_name":"CITY OF KING",
    "alt_name":"King City",
    "alt_type":"City",
    "latitude":36.2,
    "longitude":-121.12,
    "state":"CA"
  },
  {
    "_id":4072,
    "gov_name":"CITY OF MONTEREY",
    "alt_name":"Monterey",
    "alt_type":"City",
    "latitude":36.58,
    "longitude":-121.84,
    "state":"CA"
  },
  {
    "_id":4073,
    "gov_name":"CITY OF PACIFIC GROVE",
    "alt_name":"Pacific Grove",
    "alt_type":"City",
    "latitude":36.61,
    "longitude":-121.92,
    "state":"CA"
  },
  {
    "_id":4074,
    "gov_name":"CITY OF SALINAS",
    "alt_name":"Salinas",
    "alt_type":"City",
    "latitude":36.66,
    "longitude":-121.65,
    "state":"CA"
  },
  {
    "_id":4075,
    "gov_name":"CITY OF SEASIDE",
    "alt_name":"Seaside",
    "alt_type":"City",
    "latitude":36.62,
    "longitude":-121.79,
    "state":"CA"
  },
  {
    "_id":4076,
    "gov_name":"CITY OF SOLEDAD",
    "alt_name":"Soledad",
    "alt_type":"City",
    "latitude":36.41,
    "longitude":-121.32,
    "state":"CA"
  },
  {
    "_id":4077,
    "gov_name":"CITY OF SAND",
    "alt_name":"Sand City",
    "alt_type":"City",
    "latitude":36.62,
    "longitude":-121.79,
    "state":"CA"
  },
  {
    "_id":4078,
    "gov_name":"CITY OF MARINA",
    "alt_name":"Marina",
    "alt_type":"City",
    "latitude":36.68,
    "longitude":-121.79,
    "state":"CA"
  },
  {
    "_id":4079,
    "gov_name":"CITY OF CALISTOGA",
    "alt_name":"Calistoga",
    "alt_type":"City",
    "latitude":38.58,
    "longitude":-122.58,
    "state":"CA"
  },
  {
    "_id":4080,
    "gov_name":"CITY OF NAPA",
    "alt_name":"Napa",
    "alt_type":"City",
    "latitude":38.29,
    "longitude":-122.28,
    "state":"CA"
  },
  {
    "_id":4081,
    "gov_name":"CITY OF ST HELENA",
    "alt_name":"St. Helena",
    "alt_type":"City",
    "latitude":38.51,
    "longitude":-122.46,
    "state":"CA"
  },
  {
    "_id":4082,
    "gov_name":"CITY OF AMERICAN CANYON",
    "alt_name":"American Canyon",
    "alt_type":"City",
    "latitude":38.16,
    "longitude":-122.25,
    "state":"CA"
  },
  {
    "_id":4083,
    "gov_name":"TOWN OF YOUNTVILLE",
    "alt_name":"Yountville",
    "alt_type":"City",
    "latitude":38.41,
    "longitude":-122.36,
    "state":"CA"
  },
  {
    "_id":4084,
    "gov_name":"CITY OF GRASS VALLEY",
    "alt_name":"Grass Valley",
    "alt_type":"City",
    "latitude":39.2,
    "longitude":-121,
    "state":"CA"
  },
  {
    "_id":4085,
    "gov_name":"CITY OF NEVADA CITY",
    "alt_name":"Nevada City",
    "alt_type":"City",
    "latitude":39.3,
    "longitude":-120.97,
    "state":"CA"
  },
  {
    "_id":4086,
    "gov_name":"CITY OF TRUCKEE",
    "alt_name":"Truckee",
    "alt_type":"City",
    "latitude":39.33,
    "longitude":-120.17,
    "state":"CA"
  },
  {
    "_id":4087,
    "gov_name":"CITY OF ANAHEIM",
    "alt_name":"Anaheim",
    "alt_type":"City",
    "latitude":33.83,
    "longitude":-117.9,
    "state":"CA"
  },
  {
    "_id":4088,
    "gov_name":"CITY OF BREA",
    "alt_name":"Brea",
    "alt_type":"City",
    "latitude":33.92,
    "longitude":-117.88,
    "state":"CA"
  },
  {
    "_id":4089,
    "gov_name":"CITY OF BUENA PARK",
    "alt_name":"Buena Park",
    "alt_type":"City",
    "latitude":33.87,
    "longitude":-117.98,
    "state":"CA"
  },
  {
    "_id":4090,
    "gov_name":"CITY OF COSTA MESA",
    "alt_name":"Costa Mesa",
    "alt_type":"City",
    "latitude":33.64,
    "longitude":-117.91,
    "state":"CA"
  },
  {
    "_id":4091,
    "gov_name":"CITY OF LA PALMA",
    "alt_name":"La Palma",
    "alt_type":"City",
    "latitude":33.84,
    "longitude":-118.03,
    "state":"CA"
  },
  {
    "_id":4092,
    "gov_name":"CITY OF FULLERTON",
    "alt_name":"Fullerton",
    "alt_type":"City",
    "latitude":33.86,
    "longitude":-117.92,
    "state":"CA"
  },
  {
    "_id":4093,
    "gov_name":"CITY OF GARDEN GROVE",
    "alt_name":"Garden Grove",
    "alt_type":"City",
    "latitude":33.78,
    "longitude":-117.92,
    "state":"CA"
  },
  {
    "_id":4094,
    "gov_name":"CITY OF HUNTINGTON BEACH",
    "alt_name":"Huntington Beach",
    "alt_type":"City",
    "latitude":33.67,
    "longitude":-118,
    "state":"CA"
  },
  {
    "_id":4095,
    "gov_name":"CITY OF LAGUNA BEACH",
    "alt_name":"Laguna Beach",
    "alt_type":"City",
    "latitude":33.54,
    "longitude":-117.78,
    "state":"CA"
  },
  {
    "_id":4096,
    "gov_name":"CITY OF LA HABRA",
    "alt_name":"La Habra",
    "alt_type":"City",
    "latitude":33.93,
    "longitude":-117.94,
    "state":"CA"
  },
  {
    "_id":4097,
    "gov_name":"CITY OF NEWPORT BEACH",
    "alt_name":"Newport Beach",
    "alt_type":"City",
    "latitude":33.62,
    "longitude":-117.93,
    "state":"CA"
  },
  {
    "_id":4098,
    "gov_name":"CITY OF ORANGE",
    "alt_name":"Orange",
    "alt_type":"City",
    "latitude":33.78,
    "longitude":-117.84,
    "state":"CA"
  },
  {
    "_id":4099,
    "gov_name":"CITY OF PLACENTIA",
    "alt_name":"Placentia",
    "alt_type":"City",
    "latitude":33.87,
    "longitude":-117.85,
    "state":"CA"
  },
  {
    "_id":4100,
    "gov_name":"CITY OF SAN CLEMENTE",
    "alt_name":"San Clemente",
    "alt_type":"City",
    "latitude":33.43,
    "longitude":-117.62,
    "state":"CA"
  },
  {
    "_id":4101,
    "gov_name":"CITY OF SANTA ANA",
    "alt_name":"Santa Ana",
    "alt_type":"City",
    "latitude":33.73,
    "longitude":-117.87,
    "state":"CA"
  },
  {
    "_id":4102,
    "gov_name":"CITY OF SEAL BEACH",
    "alt_name":"Seal Beach",
    "alt_type":"City",
    "latitude":33.76,
    "longitude":-118.08,
    "state":"CA"
  },
  {
    "_id":4103,
    "gov_name":"CITY OF STANTON",
    "alt_name":"Stanton",
    "alt_type":"City",
    "latitude":33.79,
    "longitude":-117.99,
    "state":"CA"
  },
  {
    "_id":4104,
    "gov_name":"CITY OF TUSTIN",
    "alt_name":"Tustin",
    "alt_type":"City",
    "latitude":33.73,
    "longitude":-117.82,
    "state":"CA"
  },
  {
    "_id":4105,
    "gov_name":"CITY OF LAKE FOREST",
    "alt_name":"Lake Forest",
    "alt_type":"City",
    "latitude":33.64,
    "longitude":-117.68,
    "state":"CA"
  },
  {
    "_id":4106,
    "gov_name":"CITY OF LAGUNA HILLS",
    "alt_name":"Laguna Hills",
    "alt_type":"City",
    "latitude":33.59,
    "longitude":-117.69,
    "state":"CA"
  },
  {
    "_id":4107,
    "gov_name":"CITY OF LAGUNA WOODS",
    "alt_name":"Laguna Woods",
    "alt_type":"City",
    "latitude":33.61,
    "longitude":-117.71,
    "state":"CA"
  },
  {
    "_id":4108,
    "gov_name":"CITY OF RANCHO SANTA MARGARITA",
    "alt_name":"Rancho Santa Margarita",
    "alt_type":"City",
    "latitude":33.65,
    "longitude":-117.59,
    "state":"CA"
  },
  {
    "_id":4109,
    "gov_name":"CITY OF ALISO VIEJO",
    "alt_name":"Aliso Viejo",
    "alt_type":"City",
    "latitude":33.57,
    "longitude":-117.7,
    "state":"CA"
  },
  {
    "_id":4110,
    "gov_name":"CITY OF MISSION VIEJO",
    "alt_name":"Mission Viejo",
    "alt_type":"City",
    "latitude":33.61,
    "longitude":-117.66,
    "state":"CA"
  },
  {
    "_id":4111,
    "gov_name":"CITY OF ONTARIO",
    "alt_name":"Ontario",
    "alt_type":"City",
    "latitude":34.07,
    "longitude":-117.62,
    "state":"CA"
  },
  {
    "_id":4112,
    "gov_name":"CITY OF REDLANDS",
    "alt_name":"Redlands",
    "alt_type":"City",
    "latitude":34.03,
    "longitude":-117.18,
    "state":"CA"
  },
  {
    "_id":4113,
    "gov_name":"CITY OF RIALTO",
    "alt_name":"Rialto",
    "alt_type":"City",
    "latitude":34.11,
    "longitude":-117.37,
    "state":"CA"
  },
  {
    "_id":4114,
    "gov_name":"CITY OF SAN BERNARDINO",
    "alt_name":"San Bernardino",
    "alt_type":"City",
    "latitude":34.84,
    "longitude":-115.96,
    "state":"CA"
  },
  {
    "_id":4115,
    "gov_name":"CITY OF UPLAND",
    "alt_name":"Upland",
    "alt_type":"City",
    "latitude":34.11,
    "longitude":-117.65,
    "state":"CA"
  },
  {
    "_id":4116,
    "gov_name":"CITY OF CHINO HILLS",
    "alt_name":"Chino Hills",
    "alt_type":"City",
    "latitude":33.97,
    "longitude":-117.73,
    "state":"CA"
  },
  {
    "_id":4117,
    "gov_name":"CITY OF YUCCA VALLEY",
    "alt_name":"Yucca Valley",
    "alt_type":"City",
    "latitude":34.15,
    "longitude":-116.43,
    "state":"CA"
  },
  {
    "_id":4118,
    "gov_name":"CITY OF TWENTYNINE PALMS",
    "alt_name":"Twentynine Palms",
    "alt_type":"City",
    "latitude":34.14,
    "longitude":-116.06,
    "state":"CA"
  },
  {
    "_id":4119,
    "gov_name":"CITY OF HESPERIA",
    "alt_name":"Hesperia",
    "alt_type":"City",
    "latitude":34.42,
    "longitude":-117.3,
    "state":"CA"
  },
  {
    "_id":4120,
    "gov_name":"CITY OF HIGHLAND",
    "alt_name":"Highland",
    "alt_type":"City",
    "latitude":34.15,
    "longitude":-117.14,
    "state":"CA"
  },
  {
    "_id":4121,
    "gov_name":"TOWN OF APPLE VALLEY",
    "alt_name":"Apple Valley",
    "alt_type":"City",
    "latitude":34.52,
    "longitude":-117.21,
    "state":"CA"
  },
  {
    "_id":4122,
    "gov_name":"CITY OF YUCAIPA",
    "alt_name":"Yucaipa",
    "alt_type":"City",
    "latitude":34.02,
    "longitude":-117.04,
    "state":"CA"
  },
  {
    "_id":4123,
    "gov_name":"CITY OF MONTCLAIR",
    "alt_name":"Montclair",
    "alt_type":"City",
    "latitude":34.07,
    "longitude":-117.69,
    "state":"CA"
  },
  {
    "_id":4124,
    "gov_name":"CITY OF RANCHO CUCAMONGA",
    "alt_name":"Rancho Cucamonga",
    "alt_type":"City",
    "latitude":34.84,
    "longitude":-115.96,
    "state":"CA"
  },
  {
    "_id":4125,
    "gov_name":"CITY OF GRAND TERRACE",
    "alt_name":"Grand Terrace",
    "alt_type":"City",
    "latitude":34.03,
    "longitude":-117.31,
    "state":"CA"
  },
  {
    "_id":4126,
    "gov_name":"CITY OF BIG BEAR LAKE",
    "alt_name":"Big Bear Lake",
    "alt_type":"City",
    "latitude":34.23,
    "longitude":-116.9,
    "state":"CA"
  },
  {
    "_id":4127,
    "gov_name":"CITY OF VICTORVILLE",
    "alt_name":"Victorville",
    "alt_type":"City",
    "latitude":34.48,
    "longitude":-117.4,
    "state":"CA"
  },
  {
    "_id":4128,
    "gov_name":"CITY OF ADELANTO",
    "alt_name":"Adelanto",
    "alt_type":"City",
    "latitude":34.58,
    "longitude":-117.42,
    "state":"CA"
  },
  {
    "_id":4129,
    "gov_name":"CITY OF LOMA LINDA",
    "alt_name":"Loma Linda",
    "alt_type":"City",
    "latitude":34.05,
    "longitude":-117.25,
    "state":"CA"
  },
  {
    "_id":4130,
    "gov_name":"CITY OF CARLSBAD",
    "alt_name":"Carlsbad",
    "alt_type":"City",
    "latitude":33.16,
    "longitude":-117.32,
    "state":"CA"
  },
  {
    "_id":4131,
    "gov_name":"CITY OF CHULA VISTA",
    "alt_name":"Chula Vista",
    "alt_type":"City",
    "latitude":32.63,
    "longitude":-117.06,
    "state":"CA"
  },
  {
    "_id":4132,
    "gov_name":"CITY OF CORONADO",
    "alt_name":"Coronado",
    "alt_type":"City",
    "latitude":32.68,
    "longitude":-117.16,
    "state":"CA"
  },
  {
    "_id":4133,
    "gov_name":"CITY OF EL CAJON",
    "alt_name":"El Cajon",
    "alt_type":"City",
    "latitude":32.79,
    "longitude":-116.96,
    "state":"CA"
  },
  {
    "_id":4134,
    "gov_name":"CITY OF ESCONDIDO",
    "alt_name":"Escondido",
    "alt_type":"City",
    "latitude":33.11,
    "longitude":-117.07,
    "state":"CA"
  },
  {
    "_id":4135,
    "gov_name":"CITY OF IMPERIAL BEACH",
    "alt_name":"Imperial Beach",
    "alt_type":"City",
    "latitude":32.57,
    "longitude":-117.11,
    "state":"CA"
  },
  {
    "_id":4136,
    "gov_name":"CITY OF LA MESA",
    "alt_name":"La Mesa",
    "alt_type":"City",
    "latitude":32.78,
    "longitude":-117.01,
    "state":"CA"
  },
  {
    "_id":4137,
    "gov_name":"CITY OF NATIONAL CITY",
    "alt_name":"National City",
    "alt_type":"City",
    "latitude":32.67,
    "longitude":-117.08,
    "state":"CA"
  },
  {
    "_id":4138,
    "gov_name":"CITY OF OCEANSIDE",
    "alt_name":"Oceanside",
    "alt_type":"City",
    "latitude":33.2,
    "longitude":-117.35,
    "state":"CA"
  },
  {
    "_id":4139,
    "gov_name":"CITY OF SAN DIEGO",
    "alt_name":"San Diego",
    "alt_type":"City",
    "latitude":32.71,
    "longitude":-117.15,
    "state":"CA"
  },
  {
    "_id":4140,
    "gov_name":"CITY OF SOLANA BEACH",
    "alt_name":"Solana Beach",
    "alt_type":"City",
    "latitude":32.99,
    "longitude":-117.25,
    "state":"CA"
  },
  {
    "_id":4141,
    "gov_name":"CITY OF ENCINITAS",
    "alt_name":"Encinitas",
    "alt_type":"City",
    "latitude":33.05,
    "longitude":-117.26,
    "state":"CA"
  },
  {
    "_id":4142,
    "gov_name":"CITY OF DEL MAR",
    "alt_name":"Del Mar",
    "alt_type":"City",
    "latitude":32.96,
    "longitude":-117.24,
    "state":"CA"
  },
  {
    "_id":4143,
    "gov_name":"CITY OF POWAY",
    "alt_name":"Poway",
    "alt_type":"City",
    "latitude":33.01,
    "longitude":-116.84,
    "state":"CA"
  },
  {
    "_id":4144,
    "gov_name":"CITY OF SANTEE",
    "alt_name":"Santee",
    "alt_type":"City",
    "latitude":32.84,
    "longitude":-116.98,
    "state":"CA"
  },
  {
    "_id":4145,
    "gov_name":"CITY OF SAN MARCOS",
    "alt_name":"San Marcos",
    "alt_type":"City",
    "latitude":33.14,
    "longitude":-117.16,
    "state":"CA"
  },
  {
    "_id":4146,
    "gov_name":"CITY OF VISTA",
    "alt_name":"Vista",
    "alt_type":"City",
    "latitude":33.21,
    "longitude":-117.22,
    "state":"CA"
  },
  {
    "_id":4147,
    "gov_name":"CITY OF LEMON GROVE",
    "alt_name":"Lemon Grove",
    "alt_type":"City",
    "latitude":32.73,
    "longitude":-117.03,
    "state":"CA"
  },
  {
    "_id":4148,
    "gov_name":"CITY AND COUNTY OF SAN FRANCISCO",
    "alt_name":"San Francisco",
    "alt_type":"County",
    "latitude":37.78,
    "longitude":-122.41,
    "state":"CA"
  },
  {
    "_id":4149,
    "gov_name":"CITY OF LODI",
    "alt_name":"Lodi",
    "alt_type":"City",
    "latitude":38.12,
    "longitude":-121.25,
    "state":"CA"
  },
  {
    "_id":4150,
    "gov_name":"CITY OF MANTECA",
    "alt_name":"Manteca",
    "alt_type":"City",
    "latitude":37.78,
    "longitude":-121.23,
    "state":"CA"
  },
  {
    "_id":4151,
    "gov_name":"CITY OF RIPON",
    "alt_name":"Ripon",
    "alt_type":"City",
    "latitude":37.74,
    "longitude":-121.12,
    "state":"CA"
  },
  {
    "_id":4152,
    "gov_name":"CITY OF STOCKTON",
    "alt_name":"Stockton",
    "alt_type":"City",
    "latitude":37.96,
    "longitude":-121.28,
    "state":"CA"
  },
  {
    "_id":4153,
    "gov_name":"CITY OF TRACY",
    "alt_name":"Tracy",
    "alt_type":"City",
    "latitude":37.73,
    "longitude":-121.43,
    "state":"CA"
  },
  {
    "_id":4154,
    "gov_name":"CITY OF LATHROP",
    "alt_name":"Lathrop",
    "alt_type":"City",
    "latitude":37.82,
    "longitude":-121.28,
    "state":"CA"
  },
  {
    "_id":4155,
    "gov_name":"CITY OF ESCALON",
    "alt_name":"Escalon",
    "alt_type":"City",
    "latitude":37.79,
    "longitude":-121,
    "state":"CA"
  },
  {
    "_id":4156,
    "gov_name":"CITY OF ARROYO GRANDE",
    "alt_name":"Arroyo Grande",
    "alt_type":"City",
    "latitude":35.16,
    "longitude":-120.46,
    "state":"CA"
  },
  {
    "_id":4157,
    "gov_name":"CITY OF EL PASO DE ROBLES",
    "alt_name":"El Paso De Robles",
    "alt_type":"City",
    "latitude":35.64,
    "longitude":-120.7,
    "state":"CA"
  },
  {
    "_id":4158,
    "gov_name":"CITY OF PISMO BEACH",
    "alt_name":"Pismo Beach",
    "alt_type":"City",
    "latitude":35.15,
    "longitude":-120.65,
    "state":"CA"
  },
  {
    "_id":4159,
    "gov_name":"CITY OF SAN LUIS OBISPO",
    "alt_name":"San Luis Obispo",
    "alt_type":"City",
    "latitude":35.26,
    "longitude":-120.65,
    "state":"CA"
  },
  {
    "_id":4160,
    "gov_name":"CITY OF GROVER BEACH",
    "alt_name":"Grover Beach",
    "alt_type":"City",
    "latitude":35.12,
    "longitude":-120.61,
    "state":"CA"
  },
  {
    "_id":4161,
    "gov_name":"CITY OF ATASCADERO",
    "alt_name":"Atascadero",
    "alt_type":"City",
    "latitude":35.47,
    "longitude":-120.66,
    "state":"CA"
  },
  {
    "_id":4162,
    "gov_name":"CITY OF MORRO BAY",
    "alt_name":"Morro Bay",
    "alt_type":"City",
    "latitude":35.37,
    "longitude":-120.84,
    "state":"CA"
  },
  {
    "_id":4163,
    "gov_name":"TOWN OF ATHERTON",
    "alt_name":"Atherton",
    "alt_type":"City",
    "latitude":37.45,
    "longitude":-122.2,
    "state":"CA"
  },
  {
    "_id":4164,
    "gov_name":"CITY OF BELMONT",
    "alt_name":"Belmont",
    "alt_type":"City",
    "latitude":37.51,
    "longitude":-122.29,
    "state":"CA"
  },
  {
    "_id":4165,
    "gov_name":"CITY OF BURLINGAME",
    "alt_name":"Burlingame",
    "alt_type":"City",
    "latitude":37.56,
    "longitude":-122.36,
    "state":"CA"
  },
  {
    "_id":4166,
    "gov_name":"TOWN OF COLMA",
    "alt_name":"Colma",
    "alt_type":"City",
    "latitude":37.68,
    "longitude":-122.43,
    "state":"CA"
  },
  {
    "_id":4167,
    "gov_name":"CITY OF DALY CITY",
    "alt_name":"Daly City",
    "alt_type":"City",
    "latitude":37.67,
    "longitude":-122.47,
    "state":"CA"
  },
  {
    "_id":4168,
    "gov_name":"TOWN OF HILLSBOROUGH",
    "alt_name":"Hillsborough",
    "alt_type":"City",
    "latitude":37.56,
    "longitude":-122.36,
    "state":"CA"
  },
  {
    "_id":4169,
    "gov_name":"CITY OF MENLO PARK",
    "alt_name":"Menlo Park",
    "alt_type":"City",
    "latitude":37.43,
    "longitude":-122.18,
    "state":"CA"
  },
  {
    "_id":4170,
    "gov_name":"CITY OF MILLBRAE",
    "alt_name":"Millbrae",
    "alt_type":"City",
    "latitude":37.6,
    "longitude":-122.4,
    "state":"CA"
  },
  {
    "_id":4171,
    "gov_name":"CITY OF REDWOOD",
    "alt_name":"Redwood City",
    "alt_type":"City",
    "latitude":37.48,
    "longitude":-122.2,
    "state":"CA"
  },
  {
    "_id":4172,
    "gov_name":"CITY OF SAN BRUNO",
    "alt_name":"San Bruno",
    "alt_type":"City",
    "latitude":37.62,
    "longitude":-122.42,
    "state":"CA"
  },
  {
    "_id":4173,
    "gov_name":"CITY OF SAN CARLOS",
    "alt_name":"San Carlos",
    "alt_type":"City",
    "latitude":37.49,
    "longitude":-122.26,
    "state":"CA"
  },
  {
    "_id":4174,
    "gov_name":"CITY OF SAN MATEO",
    "alt_name":"San Mateo",
    "alt_type":"City",
    "latitude":37.53,
    "longitude":-122.29,
    "state":"CA"
  },
  {
    "_id":4175,
    "gov_name":"CITY OF SOUTH SAN FRANCISCO",
    "alt_name":"South San Francisco",
    "alt_type":"City",
    "latitude":37.65,
    "longitude":-122.42,
    "state":"CA"
  },
  {
    "_id":4176,
    "gov_name":"CITY OF PACIFICA",
    "alt_name":"Pacifica",
    "alt_type":"City",
    "latitude":37.61,
    "longitude":-122.48,
    "state":"CA"
  },
  {
    "_id":4177,
    "gov_name":"TOWN OF WOODSIDE",
    "alt_name":"Woodside",
    "alt_type":"City",
    "latitude":37.42,
    "longitude":-122.29,
    "state":"CA"
  },
  {
    "_id":4178,
    "gov_name":"CITY OF HALF MOON BAY",
    "alt_name":"Half Moon Bay",
    "alt_type":"City",
    "latitude":37.47,
    "longitude":-122.44,
    "state":"CA"
  },
  {
    "_id":4179,
    "gov_name":"CITY OF EAST PALO ALTO",
    "alt_name":"East Palo Alto",
    "alt_type":"City",
    "latitude":37.46,
    "longitude":-122.13,
    "state":"CA"
  },
  {
    "_id":4180,
    "gov_name":"CITY OF BRISBANE",
    "alt_name":"Brisbane",
    "alt_type":"City",
    "latitude":37.68,
    "longitude":-122.4,
    "state":"CA"
  },
  {
    "_id":4181,
    "gov_name":"TOWN OF PORTOLA VALLEY",
    "alt_name":"Portola Valley",
    "alt_type":"City",
    "latitude":37.37,
    "longitude":-122.21,
    "state":"CA"
  },
  {
    "_id":4182,
    "gov_name":"CITY OF FOSTER CITY",
    "alt_name":"Foster City",
    "alt_type":"City",
    "latitude":37.55,
    "longitude":-122.27,
    "state":"CA"
  },
  {
    "_id":4183,
    "gov_name":"CITY OF GUADALUPE",
    "alt_name":"Guadalupe",
    "alt_type":"City",
    "latitude":34.96,
    "longitude":-120.57,
    "state":"CA"
  },
  {
    "_id":4184,
    "gov_name":"CITY OF LOMPOC",
    "alt_name":"Lompoc",
    "alt_type":"City",
    "latitude":34.65,
    "longitude":-120.45,
    "state":"CA"
  },
  {
    "_id":4185,
    "gov_name":"CITY OF SANTA BARBARA",
    "alt_name":"Santa Barbara",
    "alt_type":"City",
    "latitude":34.26,
    "longitude":-119.84,
    "state":"CA"
  },
  {
    "_id":4186,
    "gov_name":"CITY OF SANTA MARIA",
    "alt_name":"Santa Maria",
    "alt_type":"City",
    "latitude":34.95,
    "longitude":-120.43,
    "state":"CA"
  },
  {
    "_id":4187,
    "gov_name":"CITY OF BUELLTON",
    "alt_name":"Buellton",
    "alt_type":"City",
    "latitude":34.62,
    "longitude":-120.19,
    "state":"CA"
  },
  {
    "_id":4188,
    "gov_name":"CITY OF GOLETA",
    "alt_name":"Goleta",
    "alt_type":"City",
    "latitude":34.42,
    "longitude":-119.86,
    "state":"CA"
  },
  {
    "_id":4189,
    "gov_name":"CITY OF SOLVANG",
    "alt_name":"Solvang",
    "alt_type":"City",
    "latitude":34.64,
    "longitude":-120.17,
    "state":"CA"
  },
  {
    "_id":4190,
    "gov_name":"CITY OF CARPINTERIA",
    "alt_name":"Carpinteria",
    "alt_type":"City",
    "latitude":34.4,
    "longitude":-119.51,
    "state":"CA"
  },
  {
    "_id":4191,
    "gov_name":"CITY OF CAMPBELL",
    "alt_name":"Campbell",
    "alt_type":"City",
    "latitude":37.28,
    "longitude":-121.95,
    "state":"CA"
  },
  {
    "_id":4192,
    "gov_name":"CITY OF CUPERTINO",
    "alt_name":"Cupertino",
    "alt_type":"City",
    "latitude":37.31,
    "longitude":-122.04,
    "state":"CA"
  },
  {
    "_id":4193,
    "gov_name":"CITY OF GILROY",
    "alt_name":"Gilroy",
    "alt_type":"City",
    "latitude":37.01,
    "longitude":-121.57,
    "state":"CA"
  },
  {
    "_id":4194,
    "gov_name":"CITY OF LOS ALTOS",
    "alt_name":"Los Altos",
    "alt_type":"City",
    "latitude":37.38,
    "longitude":-122.12,
    "state":"CA"
  },
  {
    "_id":4195,
    "gov_name":"TOWN OF LOS ALTOS HILLS",
    "alt_name":"Los Altos Hills",
    "alt_type":"City",
    "latitude":37.38,
    "longitude":-122.12,
    "state":"CA"
  },
  {
    "_id":4196,
    "gov_name":"TOWN OF LOS GATOS",
    "alt_name":"Los Gatos",
    "alt_type":"City",
    "latitude":37.22,
    "longitude":-121.98,
    "state":"CA"
  },
  {
    "_id":4197,
    "gov_name":"CITY OF MILPITAS",
    "alt_name":"Milpitas",
    "alt_type":"City",
    "latitude":37.43,
    "longitude":-121.89,
    "state":"CA"
  },
  {
    "_id":4198,
    "gov_name":"CITY OF MORGAN HILL",
    "alt_name":"Morgan Hill",
    "alt_type":"City",
    "latitude":37.13,
    "longitude":-121.65,
    "state":"CA"
  },
  {
    "_id":4199,
    "gov_name":"CITY OF MOUNTAIN VIEW",
    "alt_name":"Mountain View",
    "alt_type":"City",
    "latitude":37.38,
    "longitude":-122.07,
    "state":"CA"
  },
  {
    "_id":4200,
    "gov_name":"CITY OF PALO ALTO",
    "alt_name":"Palo Alto",
    "alt_type":"City",
    "latitude":37.46,
    "longitude":-122.13,
    "state":"CA"
  },
  {
    "_id":4201,
    "gov_name":"CITY OF SAN JOSE",
    "alt_name":"San Jose",
    "alt_type":"City",
    "latitude":37.33,
    "longitude":-121.89,
    "state":"CA"
  },
  {
    "_id":4202,
    "gov_name":"CITY OF SANTA CLARA",
    "alt_name":"Santa Clara",
    "alt_type":"City",
    "latitude":37.34,
    "longitude":-121.95,
    "state":"CA"
  },
  {
    "_id":4203,
    "gov_name":"CITY OF SUNNYVALE",
    "alt_name":"Sunnyvale",
    "alt_type":"City",
    "latitude":37.18,
    "longitude":-121.7,
    "state":"CA"
  },
  {
    "_id":4204,
    "gov_name":"CITY OF SARATOGA",
    "alt_name":"Saratoga",
    "alt_type":"City",
    "latitude":37.27,
    "longitude":-122.02,
    "state":"CA"
  },
  {
    "_id":4205,
    "gov_name":"CITY OF MONTE SERENO",
    "alt_name":"Monte Sereno",
    "alt_type":"City",
    "latitude":37.22,
    "longitude":-121.98,
    "state":"CA"
  },
  {
    "_id":4206,
    "gov_name":"CITY OF CAPITOLA",
    "alt_name":"Capitola",
    "alt_type":"City",
    "latitude":36.97,
    "longitude":-121.95,
    "state":"CA"
  },
  {
    "_id":4207,
    "gov_name":"CITY OF SANTA CRUZ",
    "alt_name":"Santa Cruz",
    "alt_type":"City",
    "latitude":37.03,
    "longitude":-122.11,
    "state":"CA"
  },
  {
    "_id":4208,
    "gov_name":"CITY OF WATSONVILLE",
    "alt_name":"Watsonville",
    "alt_type":"City",
    "latitude":36.92,
    "longitude":-121.77,
    "state":"CA"
  },
  {
    "_id":4209,
    "gov_name":"CITY OF SCOTTS VALLEY",
    "alt_name":"Scotts Valley",
    "alt_type":"City",
    "latitude":37.05,
    "longitude":-122.01,
    "state":"CA"
  },
  {
    "_id":4210,
    "gov_name":"CITY OF REDDING",
    "alt_name":"Redding",
    "alt_type":"City",
    "latitude":40.56,
    "longitude":-122.41,
    "state":"CA"
  },
  {
    "_id":4211,
    "gov_name":"CITY OF SHASTA LAKE",
    "alt_name":"Shasta Lake",
    "alt_type":"City",
    "latitude":40.69,
    "longitude":-122.36,
    "state":"CA"
  },
  {
    "_id":4212,
    "gov_name":"CITY OF ANDERSON",
    "alt_name":"Anderson",
    "alt_type":"City",
    "latitude":40.45,
    "longitude":-122.32,
    "state":"CA"
  },
  {
    "_id":4213,
    "gov_name":"CITY OF LOYALTON",
    "alt_name":"Loyalton",
    "alt_type":"City",
    "latitude":39.66,
    "longitude":-120.22,
    "state":"CA"
  },
  {
    "_id":4214,
    "gov_name":"CITY OF DORRIS",
    "alt_name":"Dorris",
    "alt_type":"City",
    "latitude":41.91,
    "longitude":-121.97,
    "state":"CA"
  },
  {
    "_id":4215,
    "gov_name":"CITY OF DUNSMUIR",
    "alt_name":"Dunsmuir",
    "alt_type":"City",
    "latitude":41.21,
    "longitude":-122.27,
    "state":"CA"
  },
  {
    "_id":4216,
    "gov_name":"CITY OF ETNA",
    "alt_name":"Etna",
    "alt_type":"City",
    "latitude":41.44,
    "longitude":-123.01,
    "state":"CA"
  },
  {
    "_id":4217,
    "gov_name":"CITY OF FORT JONES",
    "alt_name":"Fort Jones",
    "alt_type":"City",
    "latitude":41.61,
    "longitude":-122.88,
    "state":"CA"
  },
  {
    "_id":4218,
    "gov_name":"CITY OF MONTAGUE",
    "alt_name":"Montague",
    "alt_type":"City",
    "latitude":41.72,
    "longitude":-122.46,
    "state":"CA"
  },
  {
    "_id":4219,
    "gov_name":"CITY OF MOUNT SHASTA",
    "alt_name":"Mt. Shasta",
    "alt_type":"City",
    "latitude":41.31,
    "longitude":-122.32,
    "state":"CA"
  },
  {
    "_id":4220,
    "gov_name":"CITY OF TULELAKE",
    "alt_name":"Tulelake",
    "alt_type":"City",
    "latitude":41.93,
    "longitude":-121.43,
    "state":"CA"
  },
  {
    "_id":4221,
    "gov_name":"CITY OF YREKA",
    "alt_name":"Yreka",
    "alt_type":"City",
    "latitude":41.72,
    "longitude":-122.63,
    "state":"CA"
  },
  {
    "_id":4222,
    "gov_name":"CITY OF WEED",
    "alt_name":"Weed",
    "alt_type":"City",
    "latitude":41.66,
    "longitude":-122.4,
    "state":"CA"
  },
  {
    "_id":4223,
    "gov_name":"CITY OF BENICIA",
    "alt_name":"Benicia",
    "alt_type":"City",
    "latitude":38.06,
    "longitude":-122.16,
    "state":"CA"
  },
  {
    "_id":4224,
    "gov_name":"CITY OF DIXON",
    "alt_name":"Dixon",
    "alt_type":"City",
    "latitude":38.44,
    "longitude":-121.8,
    "state":"CA"
  },
  {
    "_id":4225,
    "gov_name":"CITY OF FAIRFIELD",
    "alt_name":"Fairfield",
    "alt_type":"City",
    "latitude":38.26,
    "longitude":-122.03,
    "state":"CA"
  },
  {
    "_id":4226,
    "gov_name":"CITY OF RIO VISTA",
    "alt_name":"Rio Vista",
    "alt_type":"City",
    "latitude":38.16,
    "longitude":-121.7,
    "state":"CA"
  },
  {
    "_id":4227,
    "gov_name":"CITY OF SUISUN CITY",
    "alt_name":"Suisun City",
    "alt_type":"City",
    "latitude":38.24,
    "longitude":-122.04,
    "state":"CA"
  },
  {
    "_id":4228,
    "gov_name":"CITY OF VACAVILLE",
    "alt_name":"Vacaville",
    "alt_type":"City",
    "latitude":38.38,
    "longitude":-121.98,
    "state":"CA"
  },